old_circuit_id,new_circuit_id,tipo,status,final_status,modem,plan,mac_address,city,latitude,longitude,state,terminal_id,created_at,terminated_at,new_tipo,GBytes_in,GBytes_out,GBytes_total,last_use,days_since_use,use_cat,provedor
PASI000016,PASI000016,ubs,Will Not Migrate,Terminated,SB2MODEM,0001-GESAC 10Mbps,NOT_AVAILABLE,ANANINDEUA,-1.4053000211715698,-48.42250061035156,PA,FTB-000307,2019-01-28,2024-01-28,UBS,,,,2024-10-25,6,Offline,SES
PASI000022,PASI000022,ubs,Will Not Migrate,Terminated,SB2MODEM,0001-GESAC 10Mbps,NOT_AVAILABLE,ABAETETUBA,-1.811900019645691,-48.81029891967773,PA,FTB-000406,2019-02-05,2024-02-05,UBS,,,,2024-10-28,3,Online,Viasat
PASI000026,PASI000026,ubs,Other Providers,Terminated,SB2MODEM,0001-GESAC 10Mbps,NOT_AVAILABLE,BELEM,-1.4322222471237185,-48.476112365722656,PA,FTB-000491,2019-02-08,2024-02-08,UBS,,,,2024-10-28,3,Online,SES
PASI000018,PASI000018,ubs,Will Not Migrate,Terminated,SB2MODEM,0001-GESAC 10Mbps,NOT_AVAILABLE,BELEM,-1.3658000230789185,-48.43080139160156,PA,FTB-000554,2019-02-12,2024-02-12,UBS,,,,2024-10-27,4,Atenção,Viasat
PASI000024,PASI000024,ubs,Other Providers,Terminated,SB2MODEM,0001-GESAC 10Mbps,NOT_AVAILABLE,BELEM,-1.3033000230789185,-48.459999084472656,PA,FTB-000437,2019-02-06,2024-02-06,UBS,,,,2024-10-26,5,Atenção,Viasat
ALSI000183,ALSF000440,ubs,Migração,Ativo,SB2PLUSMODEM,0039-GESAC2 200,00A0BC760200,Igaci,-9.55317497253418,-36.750953674316406,Alagoas,FTB-000428,2019-02-05,2024-02-05,UBS,,,,2024-10-25,6,Offline,SES
PASI001155,PASI001155,ubs,Other Providers,Terminated,SB2MODEM,0001-GESAC 10Mbps,NOT_AVAILABLE,PORTEL,-1.934000015258789,-50.81900024414063,PA,FTB-001126,2019-03-08,2024-03-08,UBS,,,,2024-10-31,0,Online,Hughesnet
PASI000127,PASI000127,ubs,Other Providers,Terminated,SB2MODEM,0001-GESAC 10Mbps,00A0BC3CD76F,VISEU,-1.1890000104904177,-46.141998291015625,PA,FTB-001914,2019-03-27,2024-03-27,UBS,,,,2024-10-16,15,Offline,Viasat
PASI000106,PASI000106,ubs,Other Providers,Terminated,SB2MODEM,0001-GESAC 10Mbps,NOT_AVAILABLE,BREVES,-1.6779999732971191,-50.4739990234375,PA,FTB-003857,2019-05-09,2024-05-09,UBS,,,,2024-10-31,0,Online,SES
PASI000135,PASI000135,ubs,Will Not Migrate,Terminated,SB2MODEM,0001-GESAC 10Mbps,NOT_AVAILABLE,BAIÃO,-2.789999961853028,-49.67100143432617,PA,FTB-005966,2019-06-07,2024-06-07,UBS,,,,2024-10-26,5,Atenção,Hughesnet
PASI000136,PASI000136,ubs,Will Not Migrate,Terminated,SB2MODEM,0001-GESAC 10Mbps,NOT_AVAILABLE,BAIÃO,-3.01419997215271,-49.74860000610352,PA,FTB-006362,2019-06-12,2024-06-12,UBS,,,,2024-10-28,3,Online,Hughesnet
PASI000137,PASI000137,ubs,Other Providers,Terminated,SB2MODEM,0001-GESAC 10Mbps,00A0BC613B2D,BAIÃO,-2.739000082015991,-49.67100143432617,PA,FTB-003031,2019-04-20,2024-04-20,UBS,0.0,0.0,0.0,2024-10-24,7,Offline,SES
PASI000494,PASI000494,ubs,Other Providers,Terminated,SB2MODEM,0001-GESAC 10Mbps,00A0BC613B02,BAIÃO,-2.8931000232696533,-49.54219818115234,PA,FTB-005822,2019-06-05,2024-06-05,UBS,,,,2024-10-28,3,Online,Hughesnet
PASI000495,PASI000495,ubs,Other Providers,Terminated,SB2MODEM,0001-GESAC 10Mbps,00A0BC3A57AC,BAIÃO,-2.8136000633239746,-49.53419876098633,PA,FTB-005934,2019-06-06,2024-06-06,UBS,0.0,0.0,0.0,2024-10-23,8,Offline,Viasat
PASI000050,PASI000050,ubs,Other Providers,Terminated,SB2MODEM,0001-GESAC 10Mbps,00A0BC32F6E2,SALINÓPOLIS,-0.6150000095367432,-47.36399841308594,PA,FTB-001765,2019-03-22,2024-03-22,UBS,0.0,0.0,0.0,2024-10-31,0,Online,Viasat
PASI000064,PASI000064,ubs,Other Providers,Terminated,SB2MODEM,0001-GESAC 10Mbps,00A0BC3E008F,BRAGANCA,-1.069100022315979,-46.74100112915039,PA,FTB-001924,2019-03-27,2024-03-27,UBS,0.0,0.0,0.0,2024-10-29,2,Online,Hughesnet
PASI000088,PASI000088,ubs,Will Not Migrate,Terminated,SB2MODEM,0001-GESAC 10Mbps,NOT_AVAILABLE,CURUCA,-0.7170000076293945,-47.76599884033203,PA,FTB-001483,2019-03-15,2024-03-15,UBS,,,,2024-10-27,4,Atenção,Viasat
PASI000103,PASI000103,ubs,Will Not Migrate,Terminated,SB2MODEM,0001-GESAC 10Mbps,NOT_AVAILABLE,MUANA,-1.531000018119812,-49.22299957275391,PA,FTB-001484,2019-03-15,2024-03-15,UBS,,,,2024-10-31,0,Online,Viasat
PASI000938,PASF000263,ubs,Migração,Ativo,SB2PLUSMODEM,0039-GESAC2 200 (SB2+),00A0BC79114C,,-9.334723472595217,-50.35000228881836,PA,FTB-006739,2019-06-18,2024-06-18,UBS,199.4538692058996,14.049374959431589,213.50324416533115,2024-10-27,4,Atenção,Hughesnet
PASI001157,PASI001157,ubs,Will Not Migrate,Terminated,SB2MODEM,0001-GESAC 10Mbps,NOT_AVAILABLE,SANTANA DO ARAGUAIA,-9.336400032043455,-50.33390045166016,PA,FTB-006683,2019-06-18,2024-06-18,UBS,,,,2024-10-20,11,Offline,Viasat
PASI000947,PASI000947,ubs,Will Not Migrate,Terminated,SB2MODEM,0001-GESAC 10Mbps,NOT_AVAILABLE,NOVO PROGRESSO,-7.289999961853027,-55.310001373291016,PA,FTB-007694,2019-07-09,2024-07-09,UBS,,,,2024-10-27,4,Atenção,SES
PASI000112,PASI000112,ubs,Other Providers,Terminated,SB2MODEM,0001-GESAC 10Mbps,NOT_AVAILABLE,BREVES,-1.687999963760376,-50.47700119018555,PA,FTB-003841,2019-05-09,2024-05-09,UBS,,,,2024-10-31,0,Online,Viasat
AMSI000487,AMSI000487,ubs,Other Providers,Bloqueados,SB2MODEM,0001-GESAC 10Mbps,00A0BC33DEE3,BORBA,-4.047800064086914,-59.371700286865234,AM,FTB-007478,2019-07-04,2024-07-04,UBS,1.9483738588169217,0.2037140587344765,2.1520879175513983,2024-10-29,2,Online,Hughesnet
PASI000683,PASI000683,ubs,Other Providers,Terminated,SB2MODEM,0001-GESAC 10Mbps,NOT_AVAILABLE,PACAJÁ,-3.839299917221069,-50.637298583984375,PA,FTB-007259,2019-06-30,2024-06-30,UBS,,,,2024-10-28,3,Online,Viasat
AMSI000151,AMSI000151,ubs,Other Providers,Terminated,SB2MODEM,0001-GESAC 10Mbps,NOT_AVAILABLE,BORBA,-4.389999866485596,-59.59000015258789,AM,FTB-007303,2019-07-01,2024-07-01,UBS,,,,2024-10-23,8,Offline,Hughesnet
AMSI000152,AMSI000152,ubs,Other Providers,Terminated,SB2MODEM,0001-GESAC 10Mbps,NOT_AVAILABLE,BORBA,-4.397799968719482,-59.598899841308594,AM,FTB-007403,2019-07-03,2024-07-03,UBS,,,,2024-10-27,4,Atenção,Viasat
AMSI000153,AMSI000153,ubs,Other Providers,Terminated,SB2MODEM,0001-GESAC 10Mbps,NOT_AVAILABLE,BORBA,-4.388299942016602,-59.59560012817383,AM,FTB-007341,2019-07-02,2024-07-02,UBS,,,,2024-10-31,0,Online,Viasat
AMSI000154,AMSI000154,ubs,Other Providers,Terminated,SB2MODEM,0001-GESAC 10Mbps,NOT_AVAILABLE,BORBA,-4.394400119781494,-59.58890151977539,AM,FTB-007431,2019-07-03,2024-07-03,UBS,,,,2024-10-25,6,Offline,Viasat
AMSI000155,AMSI000155,ubs,Other Providers,Terminated,SB2MODEM,0001-GESAC 10Mbps,NOT_AVAILABLE,BORBA,-4.389999866485596,-59.59999847412109,AM,FTB-007345,2019-07-02,2024-07-02,UBS,,,,2024-10-31,0,Online,SES
AMSI000156,AMSI000156,ubs,Other Providers,Terminated,SB2MODEM,0001-GESAC 10Mbps,NOT_AVAILABLE,BORBA,-4.399199962615967,-59.598899841308594,AM,FTB-007344,2019-07-02,2024-07-02,UBS,,,,2024-10-26,5,Atenção,SES
MGSI000478,MGSI000478,ubs,Will Not Migrate,Terminated,SB2MODEM,0001-GESAC 10Mbps,NOT_AVAILABLE,MUTUM,-20.13719940185547,-41.39440155029297,MG,FTB-005032,2019-05-28,2024-05-28,UBS,,,,2024-10-30,1,Online,Hughesnet
PASI000057,PASI000057,ubs,Other Providers,Terminated,SB2MODEM,0001-GESAC 10Mbps,NOT_AVAILABLE,MARACANÃ,-0.8309999704360962,-47.448001861572266,PA,FTB-002411,2019-04-05,2024-04-05,UBS,,,,2024-10-30,1,Online,SES
PASI000124,PASI000124,ubs,Will Not Migrate,Terminated,SB2MODEM,0001-GESAC 10Mbps,NOT_AVAILABLE,ABAETETUBA,-1.8760000467300413,-48.87900161743164,PA,FTB-002682,2019-04-11,2024-04-11,UBS,,,,2024-10-31,0,Online,Viasat
PASI000611,PASI000611,ubs,Will Not Migrate,Terminated,SB2MODEM,0001-GESAC 10Mbps,NOT_AVAILABLE,ABAETETUBA,-1.746999979019165,-48.74100112915039,PA,FTB-003539,2019-04-30,2024-04-30,UBS,,,,2024-10-30,1,Online,Viasat
PASI001024,PASF001749,ubs,Migração,Ativo,SB2PLUSMODEM,0039-GESAC2 200,00A0BCAD8DC4,,-2.1616666316986084,-56.09000015258789,PA,FTB-009054,2019-08-10,2024-08-10,UBS,23.954667889513075,1.7171693611890078,25.671837250702083,2024-10-22,9,Offline,SES
PASI001151,PASF001546,ubs,Migração,Ativo,SB2PLUSMODEM,0039-GESAC2 200,00A0BC97C85C,,-6.079999923706055,-49.90999984741211,PA,FTB-004008,2019-05-14,2024-05-14,UBS,6.68103585857898,0.4137128069996834,7.094748665578663,2024-10-31,0,Online,Viasat
AMSI000466,AMSI000466,ubs,Will Not Migrate,Terminated,SB2MODEM,0001-GESAC 10Mbps,NOT_AVAILABLE,TABATINGA,-4.21999979019165,-69.93000030517578,AM,FTB-003965,2019-05-12,2024-05-12,UBS,,,,2024-10-31,0,Online,Viasat
AMSI000467,AMSI000467,ubs,Other Providers,Terminated,SB2MODEM,0001-GESAC 10Mbps,NOT_AVAILABLE,TABATINGA,-4.231400012969971,-69.92890167236328,AM,FTB-003957,2019-05-11,2024-05-11,UBS,,,,2024-10-31,0,Online,Hughesnet
AMSI000468,AMSI000468,ubs,Other Providers,Terminated,SB2MODEM,0001-GESAC 10Mbps,NOT_AVAILABLE,TABATINGA,-4.236000061035156,-69.927001953125,AM,FTB-003949,2019-05-11,2024-05-11,UBS,,,,2024-10-21,10,Offline,Viasat
AMSI000469,AMSI000469,ubs,Other Providers,Terminated,SB2MODEM,0001-GESAC 10Mbps,NOT_AVAILABLE,TABATINGA,-4.239999771118164,-69.94000244140625,AM,FTB-003950,2019-05-11,2024-05-11,UBS,,,,2024-10-18,13,Offline,Viasat
AMSI000491,AMSI000491,ubs,Other Providers,Terminated,SB2MODEM,0001-GESAC 10Mbps,NOT_AVAILABLE,TABATINGA,-4.22599983215332,-69.94100189208984,AM,FTB-003967,2019-05-12,2024-05-12,UBS,,,,2024-10-27,4,Atenção,Viasat
PASI000445,PASI000445,ubs,Other Providers,Terminated,SB2MODEM,0001-GESAC 10Mbps,NOT_AVAILABLE,JACAREACANGA,-6.223800182342529,-57.76079940795898,PA,FTB-008129,2019-07-18,2024-07-18,UBS,,,,2024-10-28,3,Online,SES
PASI000946,PASI000946,ubs,Other Providers,Terminated,SB2MODEM,0001-GESAC 10Mbps,NOT_AVAILABLE,ITAITUBA,-4.250800132751465,-55.99470138549805,PA,FTB-006234,2019-06-11,2024-06-11,UBS,,,,2024-10-27,4,Atenção,Hughesnet
AMSI000447,AMSI000447,ubs,Other Providers,Terminated,SB2MODEM,0001-GESAC 10Mbps,NOT_AVAILABLE,PARINTINS,-2.621400117874145,-56.72829818725586,AM,FTB-007092,2019-06-27,2024-06-27,UBS,,,,2024-10-29,2,Online,Hughesnet
AMSI000448,AMSI000448,ubs,Other Providers,Terminated,SB2MODEM,0001-GESAC 10Mbps,NOT_AVAILABLE,PARINTINS,-2.636399984359741,-56.7317008972168,AM,FTB-008557,2019-07-26,2024-07-26,UBS,,,,2024-10-31,0,Online,SES
AMSI000449,AMSF000758,ubs,Migração,Ativo,SB2PLUSMODEM,0039-GESAC2 200,00A0BC6E0408,,-2.5477778911590576,-56.74583435058594,AM,FTB-007352,2019-07-02,2024-07-02,UBS,111.3629431547597,15.231704496778548,126.59464765153824,2024-10-25,6,Offline,Hughesnet
PASI001019,PASI001019,ubs,Other Providers,Terminated,SB2MODEM,0001-GESAC 10Mbps,NOT_AVAILABLE,MEDICILANDIA,-3.4653000831604004,-52.90140151977539,PA,FTB-007427,2019-07-03,2024-07-03,UBS,,,,2024-10-26,5,Atenção,SES
PASI001023,PASI001023,ubs,Other Providers,Terminated,SB2MODEM,0001-GESAC 10Mbps,NOT_AVAILABLE,MEDICILANDIA,-3.4293999671936035,-52.80690002441406,PA,FTB-007465,2019-07-04,2024-07-04,UBS,,,,2024-10-27,4,Atenção,Hughesnet
PASI001026,PASI001026,ubs,Will Not Migrate,Terminated,SB2MODEM,0001-GESAC 10Mbps,NOT_AVAILABLE,BELTERRA,-2.663599967956543,-54.838600158691406,PA,FTB-006301,2019-06-12,2024-06-12,UBS,,,,2024-10-29,2,Online,Viasat
AMSI000497,AMSI000497,ubs,Will Not Migrate,Terminated,SB2MODEM,0001-GESAC 10Mbps,NOT_AVAILABLE,PARINTINS,-2.642199993133545,-56.750301361083984,AM,FTB-008626,2019-07-27,2024-07-27,UBS,,,,2024-10-30,1,Online,Viasat
PASI001021,PASI001021,ubs,Will Not Migrate,Terminated,SB2MODEM,0001-GESAC 10Mbps,NOT_AVAILABLE,MEDICILANDIA,-3.5185999870300293,-53.14360046386719,PA,FTB-007495,2019-07-04,2024-07-04,UBS,,,,2024-10-29,2,Online,Hughesnet
RSSI000098,RSSI000098,ubs,Will Not Migrate,Terminated,SB2MODEM,0001-GESAC 10Mbps,NOT_AVAILABLE,PASSO DO SOBRADO,-29.748699188232425,-52.274898529052734,RS,FTB-004645,2019-05-22,2024-05-22,UBS,,,,2024-10-31,0,Online,SES
TOSI000089,TOSF000082,ubs,Migração,Ativo,SB2PLUSMODEM,0039-GESAC2 200 (SB2+),00A0BCB86074,,-10.861499786376951,-48.91440963745117,TO,FTB-006476,2019-06-13,2024-06-13,UBS,,,,2024-10-25,6,Offline,Viasat
ROSI000137,ROSF000097,ubs,Migração,Ativo,SB2PLUSMODEM,0039-GESAC2 200,00A0BC71F3C4,,-8.739444732666016,-63.8569450378418,RO,FTB-004773,2019-05-23,2024-05-23,UBS,147.2180121205747,11.135541496798396,158.3535536173731,2024-10-27,4,Atenção,Viasat
TOSI000105,TOSI000105,ubs,Will Not Migrate,Terminated,SB2MODEM,0001-GESAC 10Mbps,NOT_AVAILABLE,CAMPOS LINDOS,-7.968611240386963,-46.80527877807617,TO,FTB-007129,2019-06-27,2024-06-27,UBS,,,,2024-10-17,14,Offline,Viasat
PASI000941,PASI000941,ubs,Will Not Migrate,Terminated,SB2MODEM,0001-GESAC 10Mbps,NOT_AVAILABLE,ANAPU,-3.471400022506714,-51.20439910888672,PA,FTB-006828,2019-06-19,2024-06-19,UBS,,,,2024-10-25,6,Offline,Viasat
TOSI000135,TOSI000135,ubs,Other Providers,Terminated,SB2MODEM,0001-GESAC 10Mbps,NOT_AVAILABLE,CARRASCO BONITO,-5.32420015335083,-48.03390121459961,TO,FTB-007361,2019-07-02,2024-07-02,UBS,,,,2024-10-22,9,Offline,Viasat
ROSI000041,ROSF000102,ubs,Migração,Ativo,SB2PLUSMODEM,0039-GESAC2 200,00A0BCA1EF24,,-8.856389045715332,-63.94138717651367,RO,FTB-005955,2019-06-06,2024-06-06,UBS,93.2624741178006,7.707084934227169,100.96955905202776,2024-10-31,0,Online,SES
ROSI000042,ROSI000042,ubs,Will Not Migrate,Terminated,SB2MODEM,0001-GESAC 10Mbps,NOT_AVAILABLE,PORTO VELHO,-8.762467384338379,-63.90448760986328,RO,FTB-005579,2019-06-03,2024-06-03,UBS,,,,2024-10-31,0,Online,Hughesnet
ROSI000040,ROSF000101,ubs,Migração,Ativo,SB2PLUSMODEM,0039-GESAC2 200,00A0BC94AE10,,-8.738611221313477,-63.90777587890625,RO,FTB-006649,2019-06-17,2024-06-17,UBS,76.69807055592537,5.69344531185925,82.39151586778462,2024-10-23,8,Offline,Hughesnet
TOSI000110,TOSI000110,ubs,Other Providers,Terminated,SB2MODEM,0001-GESAC 10Mbps,NOT_AVAILABLE,ARAGUATINS,-5.882199764251709,-48.158599853515625,TO,FTB-007514,2019-07-04,2024-07-04,UBS,,,,2024-10-31,0,Online,SES
PASI000647,PASI000647,ubs,Other Providers,Terminated,SB2MODEM,0001-GESAC 10Mbps,00A0BC369215,ANAPU,-3.371900081634521,-51.3213996887207,PA,FTB-006589,2019-06-15,2024-06-15,UBS,0.0,0.0,0.0,2024-10-25,6,Offline,Viasat
PASI000648,PASI000648,ubs,Other Providers,Terminated,SB2MODEM,0001-GESAC 10Mbps,00A0BC48DE4A,ANAPU,-3.471699953079224,-51.20439910888672,PA,FTB-006827,2019-06-19,2024-06-19,UBS,0.0,0.0,0.0,2024-10-30,1,Online,Viasat
PASI000651,PASI000651,ubs,Other Providers,Terminated,SB2MODEM,0001-GESAC 10Mbps,00A0BC339CF7,ANAPU,-3.130000114440918,-51.59000015258789,PA,FTB-006884,2019-06-22,2024-06-22,UBS,0.0,0.0,0.0,2024-10-29,2,Online,Hughesnet
PASI000652,PASI000652,ubs,Will Not Migrate,Terminated,SB2MODEM,0001-GESAC 10Mbps,NOT_AVAILABLE,ANAPU,-3.309200048446656,-51.41249847412109,PA,FTB-006904,2019-06-24,2024-06-24,UBS,,,,2024-10-27,4,Atenção,SES
PASI000679,PASF001084,ubs,Migração,Ativo,SB2PLUSMODEM,0039-GESAC2 200,00A0BCBE51E0,PACAJÁ,-3.6852777004241934,-50.205833435058594,PA,FTB-005695,2019-06-04,2024-06-04,UBS,77.58624494727701,13.40948159713298,90.99572654441,2024-10-30,1,Online,Viasat
PASI000681,PASI000681,ubs,Will Not Migrate,Terminated,SB2MODEM,0001-GESAC 10Mbps,NOT_AVAILABLE,PACAJÁ,-3.83489990234375,-50.637298583984375,PA,FTB-005543,2019-06-03,2024-06-03,UBS,,,,2024-10-29,2,Online,Viasat
AMSI000398,AMSI000398,ubs,Will Not Migrate,Terminated,SB2MODEM,0001-GESAC 10Mbps,NOT_AVAILABLE,Maués,-3.380000114440918,-57.720001220703125,AM,FTB-008947,2019-08-07,2024-08-07,UBS,,,,2024-10-30,1,Online,Hughesnet
AMSI000470,AMSI000470,ubs,Other Providers,Terminated,SB2MODEM,0001-GESAC 10Mbps,NOT_AVAILABLE,Benjamin Constant,-4.375800132751465,-70.02780151367188,AM,FTB-009528,2019-09-04,2024-09-04,UBS,,,,2024-10-24,7,Offline,Hughesnet
AMSI000442,AMSI000442,ubs,Will Not Migrate,Terminated,SB2MODEM,0001-GESAC 10Mbps,NOT_AVAILABLE,Maués,-3.3975000381469727,-57.71969985961914,AM,FTB-009777,2019-09-28,2024-09-28,UBS,,,,2024-10-24,7,Offline,Viasat
MSSI000040,MSSF000033,ubs,Migração,Ativo,SB2PLUSMODEM,0039-GESAC2 200 (SB2+),00A0BC8F4314,,-20.25305557250977,-56.06694412231445,MS,FTB-007337,2019-07-02,2024-07-02,UBS,30.461528141982853,3.490228157490492,33.951756299473345,2024-10-30,1,Online,Viasat
APSI000010,APSI000010,ubs,Other Providers,Terminated,SB2MODEM,0001-GESAC 10Mbps,NOT_AVAILABLE,Oiapoque,3.725800037384033,-51.72529983520508,AP,FTB-009362,2019-08-24,2024-08-24,UBS,,,,2024-10-31,0,Online,Hughesnet
AMSI000056,AMSI000056,ubs,Other Providers,Terminated,SB2MODEM,0001-GESAC 10Mbps,NOT_AVAILABLE,Barreirinha,-2.7992000579833984,-57.06840133666992,AM,FTB-008442,2019-07-24,2024-07-24,UBS,,,,2024-10-28,3,Online,Hughesnet
ROSI000136,ROSI000136,ubs,Will Not Migrate,Terminated,SB2MODEM,0001-GESAC 10Mbps,NOT_AVAILABLE,Rolim de Moura,-11.725698471069336,-61.77814102172852,RO,FTB-009844,2019-10-07,2024-10-07,UBS,,,,2024-10-22,9,Offline,Hughesnet
MTSI000004,MTSF000084,ubs,Migração,Ativo,SB2PLUSMODEM,0039-GESAC2 200 (SB2+),00A0BC65C6D8,,-11.199130058288574,-53.23564147949219,MT,FTB-009667,2019-09-18,2024-09-18,UBS,65.7776978937909,4.869823378510773,70.64752127230167,2024-10-20,11,Offline,Viasat
AMSI000479,AMSI000479,ubs,Other Providers,Terminated,SB2MODEM,0001-GESAC 10Mbps,NOT_AVAILABLE,Coari,-4.099444389343262,-63.14638900756836,AM,FTB-007251,2019-06-29,2024-06-29,UBS,,,,2024-10-30,1,Online,Hughesnet
ACSI000104,ACSI000104,ubs,Other Providers,Terminated,SB2MODEM,0001-GESAC 10Mbps,NOT_AVAILABLE,Sena Madureira,-9.068599700927734,-68.67109680175781,AC,FTB-008058,2019-07-16,2024-07-16,UBS,,,,2024-10-31,0,Online,Hughesnet
ACSI000105,ACSI000105,ubs,Will Not Migrate,Reduced,SB2MODEM,0001-GESAC 10Mbps,NOT_AVAILABLE,Santa Rosa do Purus,-9.436100006103516,-70.49299621582031,AC,FTB-011601,2020-04-08,2025-04-08,UBS,,,,2024-10-31,0,Online,Hughesnet
AMSI000493,AMSI000493,ubs,Other Providers,Terminated,SB2MODEM,0001-GESAC 10Mbps,NOT_AVAILABLE,Nova Olinda do Norte,-3.8877999782562256,-59.08940124511719,AM,FTB-009775,2019-09-28,2024-09-28,UBS,,,,2024-10-21,10,Offline,SES
ACSI000103,ACSI000103,ubs,Other Providers,Terminated,SB2MODEM,0001-GESAC 10Mbps,NOT_AVAILABLE,Sena Madureira,-9.06999969482422,-68.66000366210938,AC,FTB-008059,2019-07-16,2024-07-16,UBS,,,,2024-10-31,0,Online,Viasat
AMSI000553,AMSI000553,ubs,Other Providers,Bloqueados,SB2MODEM,0001-GESAC 10Mbps,00A0BC3189D3,Envira,-7.435200214385986,-70.02680206298828,AM,FTB-011439,2020-02-07,2025-02-07,UBS,3.688037395477295e-07,0.0,3.688037395477295e-07,2024-10-22,9,Offline,Hughesnet
AMSI000554,AMSI000554,ubs,Other Providers,Bloqueados,SB2MODEM,0001-GESAC 10Mbps,00A0BC39B0E1,Carauari,-4.872499942779541,-66.89469909667969,AM,FTB-010040,2019-11-07,2024-11-07,UBS,197.94906531181184,18.87076097074896,216.81982628256085,2024-10-27,4,Atenção,Viasat
AMSI000390,AMSI000390,ubs,Other Providers,Terminated,SB2MODEM,0001-GESAC 10Mbps,NOT_AVAILABLE,Jutaí,-2.7518999576568604,-66.75890350341797,AM,FTB-008717,2019-07-30,2024-07-30,UBS,,,,2024-10-31,0,Online,Viasat
AMSI000441,AMSI000441,ubs,Other Providers,Terminated,SB2MODEM,0001-GESAC 10Mbps,NOT_AVAILABLE,Humaitá,-7.502500057220459,-63.028099060058594,AM,FTB-009466,2019-08-30,2024-08-30,UBS,,,,2024-10-26,5,Atenção,SES
TOSI000098,TOSI000098,ubs,Will Not Migrate,Terminated,SB2MODEM,0001-GESAC 10Mbps,NOT_AVAILABLE,Riachinho,-6.438469886779785,-48.13740158081055,TO,FTB-007753,2019-07-10,2024-07-10,UBS,,,,2024-10-30,1,Online,Viasat
AMSI000500,AMSI000500,ubs,Other Providers,Terminated,SB2MODEM,0001-GESAC 10Mbps,NOT_AVAILABLE,Itacoatiara,-3.076900005340576,-58.53969955444336,AM,FTB-006930,2019-06-25,2024-06-25,UBS,,,,2024-10-29,2,Online,Hughesnet
ROSI000027,ROSF000095,ubs,Migração,Ativo,SB2PLUSMODEM,0039-GESAC2 200,00A0BC94B7C0,,-8.751111030578613,-63.84611129760742,RO,FTB-006356,2019-06-12,2024-06-12,UBS,182.3339040670544,14.841837980784476,197.17574204783887,2024-10-24,7,Offline,SES
ROSI000139,ROSF000098,ubs,Migração,Ativo,SB2PLUSMODEM,0039-GESAC2 200,00A0BC944C6C,,-8.76722240447998,-63.81833267211914,RO,FTB-006396,2019-06-13,2024-06-13,UBS,153.7307000644505,8.388066560029984,162.1187666244805,2024-10-23,8,Offline,SES
ROSI000141,ROSF000100,ubs,Migração,Ativo,SB2PLUSMODEM,0039-GESAC2 200,00A0BCA89548,,-8.735278129577637,-63.91249847412109,RO,FTB-006355,2019-06-12,2024-06-12,UBS,41.4284704439342,3.0163106517866254,44.44478109572083,2024-10-31,0,Online,SES
PASI001376,PASF000264,ubs,Migração,Ativo,SB2PLUSMODEM,0039-GESAC2 200 (SB2+),00A0BC7A2A78,,-9.336623191833496,-50.34138488769531,PA,FTB-008093,2019-07-17,2024-07-17,UBS,160.169780312106,11.994737395085394,172.1645177071914,2024-10-31,0,Online,SES
TOSI000143,TOSF000053,ubs,Migração,Ativo,SB2PLUSMODEM,0039-GESAC2 200 (SB2+),00A0BC51EB0C,,-12.651339530944824,-48.58942413330078,TO,FTB-006553,2019-06-14,2024-06-14,UBS,58.56057163886726,4.285714684985578,62.84628632385284,2024-10-29,2,Online,SES
AMSI000443,AMSI000443,ubs,Other Providers,Bloqueados,SB2MODEM,0001-GESAC 10Mbps,00A0BC453C0C,Carauari,-4.881100177764893,-66.8938980102539,AM,FTB-010008,2019-11-06,2024-11-06,UBS,7.507415113039315,0.7335082842037082,8.240923397243023,2024-10-28,3,Online,Viasat
TOSI000104,TOSF000035,ubs,Migração,Ativo,SB2PLUSMODEM,0039-GESAC2 200 (SB2+),00A0BC941CA0,,-8.059480667114258,-48.47540283203125,TO,FTB-007603,2019-07-07,2024-07-07,UBS,13.6998444898054,0.920614181086421,14.62045867089182,2024-10-26,5,Atenção,Hughesnet
AMSI000471,AMSI000471,ubs,Other Providers,Bloqueados,SB2MODEM,0001-GESAC 10Mbps,00A0BC34F43A,Amaturá,-3.360599994659424,-68.1980972290039,AM,FTB-009691,2019-09-21,2024-09-21,UBS,,,,2024-10-18,13,Offline,SES
ROSI000039,ROSI000039,ubs,Will Not Migrate,Terminated,SB2MODEM,0001-GESAC 10Mbps,NOT_AVAILABLE,Novo Horizonte do Oeste,-11.727499961853027,-62.14690017700195,RO,FTB-009448,2019-08-29,2024-08-29,UBS,,,,2024-10-21,10,Offline,Hughesnet
ROSI000028,ROSF000096,ubs,Migração,Ativo,SB2PLUSMODEM,0039-GESAC2 200,00A0BCAE23E4,,-8.76119327545166,-63.90044021606445,RO,FTB-007360,2019-07-02,2024-07-02,UBS,41.32485907804221,5.5768500296399,46.90170910768211,2024-10-31,0,Online,Hughesnet
AMSI000474,AMSI000474,ubs,Will Not Migrate,Terminated,SB2MODEM,0001-GESAC 10Mbps,NOT_AVAILABLE,Coari,-4.087200164794922,-63.13639831542969,AM,FTB-008762,2019-07-31,2024-07-31,UBS,,,,2024-10-31,0,Online,SES
AMSI000472,AMSI000472,ubs,Other Providers,Bloqueados,SB2MODEM,0001-GESAC 10Mbps,00A0BC345BA4,Envira,-7.443600177764893,-70.02739715576172,AM,FTB-011442,2020-02-08,2025-02-08,UBS,,,,2024-10-31,0,Online,Hughesnet
PASI001379,PASI001379,ubs,Other Providers,Terminated,SB2MODEM,0001-GESAC 10Mbps,NOT_AVAILABLE,Bragança,-0.8460999727249146,-46.61220169067383,PA,FTB-009421,2019-08-28,2024-08-28,UBS,,,,2024-10-31,0,Online,Viasat
PASI001378,PASI001378,ubs,Other Providers,Terminated,SB2MODEM,0001-GESAC 10Mbps,NOT_AVAILABLE,Bragança,-1.0456000566482544,-46.76309967041016,PA,FTB-009449,2019-08-29,2024-08-29,UBS,,,,2024-10-29,2,Online,Viasat
ROSI000140,ROSI000140,ubs,Other Providers,Terminated,SB2MODEM,0001-GESAC 10Mbps,NOT_AVAILABLE,Porto Velho,-8.778599739074707,-63.8025016784668,RO,FTB-009846,2019-10-07,2024-10-07,UBS,,,,2024-10-29,2,Online,Viasat
PASI000976,PASI000976,ubs,Other Providers,Terminated,SB2MODEM,0001-GESAC 10Mbps,NOT_AVAILABLE,Santarém,-2.428100109100342,-54.73720169067383,PA,FTB-009817,2019-10-03,2024-10-03,UBS,,,,2024-10-27,4,Atenção,SES
AMSI000563,AMSI000563,ubs,Will Not Migrate,Terminated,SB2MODEM,0001-GESAC 10Mbps,NOT_AVAILABLE,Manicoré,-5.805300235748291,-61.29560089111328,AM,FTB-009710,2019-09-23,2024-09-23,UBS,,,,2024-10-29,2,Online,Hughesnet
AMSI000473,AMSI000473,ubs,Other Providers,Bloqueados,SB2MODEM,0001-GESAC 10Mbps,00A0BC343EF8,Envira,-7.4309000968933105,-70.0208969116211,AM,FTB-011438,2020-02-07,2025-02-07,UBS,,,,2024-10-26,5,Atenção,SES
MASI001654,MASI001654,ubs,Will Not Migrate,Reduced,SB2MODEM,0001-GESAC 10Mbps,NOT_AVAILABLE,Paraibano,-6.416600227355957,-43.99440002441406,MA,FTB-012753,2020-08-31,2025-08-31,UBS,,,,2024-10-31,0,Online,Hughesnet
RJSI000453,RJSF000081,ubs,Migração,Ativo,SB2PLUSMODEM,0039-GESAC2 200 (SB2+),00A0BC706A4C,,-22.50555992126465,-43.17938995361328,RJ,FTB-014135,2021-04-28,2026-04-28,UBS,0.9006292140111327,0.0671665957197547,0.9677958097308874,2024-10-27,4,Atenção,Viasat
MGSI000802,MGSI000802,ubs,Will Not Migrate,Bloqueados,SB2PLUSMODEM,0034-GESAC Brasil WiFi,00A0BCA1D43C,Nanuque,-17.839540481567383,-40.3543586730957,MG,FTB-014697,2021-09-13,2026-09-13,UBS,,,,2024-10-29,2,Online,SES
MGSI000804,MGSF000031,ubs,Migração,Ativo,SB2PLUSMODEM,0042-GESAC2 400 WIFI (SB2+),00A0BCA51B90,Barbacena,-21.22654914855957,-43.774391174316406,MG,FTB-014694,2021-09-12,2026-09-12,UBS,3.91155481338501e-07,0.0,3.91155481338501e-07,2024-10-29,2,Online,Hughesnet
ALSI000810,ALSF000205,ubs,Migração,Ativo,SB2PLUSMODEM,0042-GESAC2 400 WIFI (SB2+),00A0BCA20450,Branquinha,-9.246500015258787,-36.01530838012695,AL,FTB-015104,2021-10-22,2026-10-22,UBS,11.940555485896766,1.723958850838244,13.66451433673501,2024-10-31,0,Online,Hughesnet
ALSI000832,ALSI000832,ubs,Will Not Migrate,Bloqueados,SB2PLUSMODEM,0034-GESAC Brasil WiFi,00A0BCAD5548,Junqueiro,-9.92549991607666,-36.476318359375,AL,FTB-015020,2021-10-18,2026-10-18,UBS,0.0142649831250309,0.1423768606036901,0.1566418437287211,2024-10-31,0,Online,SES
PASI001983,PASI001983,ubs,Will Not Migrate,Bloqueados,SB2MODEM,0001-GESAC 10Mbps,00A0BC359467,Benevides,-1.3614399433135986,-48.245399475097656,PA,FTB-015203,2021-11-03,2026-11-03,UBS,,,,2024-10-30,1,Online,SES
ALSI000951,ALSF000314,ubs,Migração,Ativo,SB2PLUSMODEM,0042-GESAC2 400 WIFI (SB2+),00A0BC8E4F1C,Pilar,-9.59749984741211,-35.95730972290039,AL,FTB-015822,2022-01-27,2027-01-27,UBS,9.94652509689331e-07,0.0,9.94652509689331e-07,2024-10-27,4,Atenção,SES
PASI001973,PASF000277,ubs,Migração,Ativo,SB2PLUSMODEM,0039-GESAC2 200 (SB2+),00A0BCB791AC,,-7.811378002166748,-50.76763916015625,PA,FTB-011483,2022-02-18,2027-02-18,UBS,2.9662051890045404,0.1807888876646757,3.146994076669216,2024-10-31,0,Online,Viasat
MGSI001083,MGSF000135,ubs,Migração,Ativo,SB2PLUSMODEM,0042-GESAC2 400 WIFI (SB2+),00A0BC9EAA9C,Imbé de Minas,-19.59754943847656,-41.97137069702149,MG,FTB-016307,2022-03-15,2027-03-15,UBS,2.613575747236609,0.238997595384717,2.8525733426213264,2024-10-31,0,Online,SES
MGSI001299,MGSI001299,ubs,Will Not Migrate,Bloqueados,SB2PLUSMODEM,0034-GESAC Brasil WiFi,00A0BC8F923C,Ervália,-20.84054946899414,-42.65737915039063,MG,FTB-016623,2022-03-31,2027-03-31,UBS,1.4592893421649931e-05,4.0910206735134125e-05,5.550310015678406e-05,2024-10-26,5,Atenção,SES
ESSI000862,ESSI000862,ubs,Will Not Migrate,Bloqueados,SB2MODEM,0001-GESAC 10Mbps,00A0BC485EE7,Atílio Vivácqua,-20.91455078125,-41.19837188720703,ES,FTB-020581,2022-06-24,2027-06-24,UBS,,,,2024-10-25,6,Offline,Viasat
ESSI000792,ESSI000792,ubs,Will Not Migrate,Bloqueados,SB2MODEM,0001-GESAC 10Mbps,00A0BC30294F,Brejetuba,-20.14654922485352,-41.29037094116211,ES,FTB-019484,2022-05-26,2027-05-26,UBS,,,,2024-10-28,3,Online,Hughesnet
ESSI000787,ESSI000787,ubs,Will Not Migrate,Bloqueados,SB2MODEM,0009-Telebras Plan 3 - 20Mbps,00A0BC3DBE12,Brejetuba,-20.14654922485352,-41.29037094116211,ES,FTB-019550,2022-05-27,2027-05-27,UBS,,,,2024-10-31,0,Online,Hughesnet
ESSI000794,ESSI000794,ubs,Will Not Migrate,Bloqueados,SB2MODEM,0001-GESAC 10Mbps,00A0BC3CC971,São Mateus,-18.716550827026367,-39.85935974121094,ES,FTB-020379,2022-06-16,2027-06-16,UBS,0.0,0.0,0.0,2024-10-21,10,Offline,Viasat
ESSI000800,ESSI000800,ubs,Will Not Migrate,Bloqueados,SB2MODEM,0009-Telebras Plan 3 - 20Mbps,00A0BC31C865,Brejetuba,-20.14654922485352,-41.29037094116211,ES,FTB-019485,2022-05-26,2027-05-26,UBS,,,,2024-10-28,3,Online,Viasat
AMSI001684,AMSF000872,ubs,Migração,Ativo,SB2MODEM,0039-GESAC2 200,00A0BC379BF3,Jutaí,-2.7474400997161865,-66.76750183105469,AM,FTB-020493,2022-06-21,2027-06-21,UBS,336.32257816474885,29.09602617379278,365.4186043385416,2024-10-29,2,Online,Viasat
AMSI001915,AMSI001915,ubs,Will Not Migrate,Bloqueados,SB2MODEM,0001-GESAC 10Mbps,00A0BC403D4F,Nhamundá,-2.1864500045776367,-56.71345138549805,AM,FTB-020090,2022-06-08,2027-06-08,UBS,,,,2024-10-28,3,Online,Viasat
MGSI001559,MGSI001559,ubs,Will Not Migrate,Bloqueados,SB2MODEM,0001-GESAC 10Mbps,00A0BC3A043A,Guaraciama,-17.01449966430664,-43.67340087890625,MG,FTB-021706,2022-07-31,2027-07-31,UBS,,,,2024-10-27,4,Atenção,Viasat
MGSI001565,MGSI001565,ubs,Will Not Migrate,Bloqueados,SB2MODEM,0001-GESAC 10Mbps,00A0BC3A0CAB,Guaraciama,-17.014530181884766,-43.67338180541992,MG,FTB-021714,2022-07-31,2027-07-31,UBS,,,,2024-10-24,7,Offline,Viasat
PRSF000008,PRSF000008,ubs,Will Not Migrate,Ativo,SB2PLUSMODEM,0006-Corporativo 20 (SB2+),00A0BC9EDB0C,CASTRO,-24.720420837402344,-50.06215286254883,PR,FTB-021543,2022-07-27,2027-07-27,UBS,3.020279109477997e-06,0.0,3.020279109477997e-06,2024-10-21,10,Offline,SES
PRSF000009,PRSF000009,ubs,Will Not Migrate,Ativo,SB2PLUSMODEM,0006-Corporativo 20 (SB2+),00A0BC97EE5C,CASTRO,-24.735837936401367,-49.54660034179688,PR,FTB-021312,2022-07-21,2027-07-21,UBS,3.832485526800156e-05,2.3327767848968502e-05,6.165262311697006e-05,2024-10-31,0,Online,SES
PRSF000010,PRSF000010,ubs,Will Not Migrate,Ativo,SB2PLUSMODEM,0006-Corporativo 20 (SB2+),00A0BCB7BE6C,CASTRO,-24.62694358825684,-49.991249084472656,PR,FTB-021620,2022-07-28,2027-07-28,UBS,,,,2024-10-30,1,Online,Viasat
PRSF000012,PRSF000012,ubs,Will Not Migrate,Ativo,SB2PLUSMODEM,0006-Corporativo 20 (SB2+),00A0BC8F46AC,CASTRO,-24.812557220458984,-50.01852035522461,PR,FTB-021542,2022-07-27,2027-07-27,UBS,0.7462097210809588,0.0843099988996982,0.8305197199806571,2024-10-27,4,Atenção,Viasat
PRSF000011,PRSF000011,ubs,Will Not Migrate,Ativo,SB2PLUSMODEM,0006-Corporativo 20 (SB2+),00A0BC9E74B8,CASTRO,-24.974916458129883,-49.86911010742188,PR,FTB-021354,2022-07-22,2027-07-22,UBS,6.596597692929208,0.677749764174223,7.274347457103431,2024-10-28,3,Online,Viasat
PRSF000013,PRSF000013,ubs,Will Not Migrate,Ativo,SB2PLUSMODEM,0006-Corporativo 20 (SB2+),00A0BC982364,Castro,-24.802793502807617,-50.02677917480469,PR,FTB-021541,2022-07-27,2027-07-27,UBS,,,,2024-10-25,6,Offline,Viasat
PRSF000014,PRSF000014,ubs,Will Not Migrate,Ativo,SB2PLUSMODEM,0006-Corporativo 20 (SB2+),00A0BC8E4C50,Castro,-24.877500534057617,-49.983055114746094,PR,FTB-021355,2022-07-22,2027-07-22,UBS,11.92571745440364,2.3258903678506613,14.2516078222543,2024-10-22,9,Offline,Viasat
GOSI000230,GOSF000067,ubs,Migração,Ativo,SB2PLUSMODEM,0039-GESAC2 200 (SB2+),00A0BC947084,,-15.757519721984863,-49.33441925048828,GO,FTB-023226,2022-09-12,2027-09-12,UBS,43.27000234927982,3.3021568823605776,46.5721592316404,2024-10-28,3,Online,Viasat
RJSI000543,RJSI000543,ubs,Will Not Migrate,Bloqueados,SB2PLUSMODEM,0034-GESAC Brasil WiFi,00A0BC9F02CC,Italva,-21.421550750732425,-41.69137954711914,RJ,FTB-023409,2022-09-16,2027-09-16,UBS,0.0279928548261523,0.0257380492985248,0.0537309041246771,2024-10-27,4,Atenção,Viasat
RJSI000542,RJSI000542,ubs,Will Not Migrate,Bloqueados,SB2PLUSMODEM,0034-GESAC Brasil WiFi,00A0BC8F9928,Italva,-21.421550750732425,-41.69137954711914,RJ,FTB-023394,2022-09-15,2027-09-15,UBS,,,,2024-10-31,0,Online,SES
PASI003497,PASF001719,ubs,Migração,Ativo,SB2PLUSMODEM,0039-GESAC2 200,00A0BCBA3EB0,,-5.137761116027832,-49.33419036865234,PA,FTB-024452,2022-09-28,2027-09-28,UBS,56.44162585679442,5.716721740551293,62.15834759734571,2024-10-24,7,Offline,Viasat
AMSI001632,AMSI001632,ubs,Will Not Migrate,Bloqueados,SB2MODEM,0001-GESAC 10Mbps,00A0BC47FFE7,Parintins,-2.556069850921631,-57.115699768066406,AM,FTB-025161,2022-10-16,2027-10-16,UBS,,,,2024-10-25,6,Offline,Viasat
PASI004031,PASI004031,ubs,Will Not Migrate,Bloqueados,SB2PLUSMODEM,0017-Telebras SB2+ - 10Mbps,00A0BC943CF8,Santarém,-2.4434499740600586,-54.70844268798828,PA,FTB-011489,2022-11-08,2027-11-08,UBS,3.073364496231079e-06,0.0,3.073364496231079e-06,2024-10-30,1,Online,Viasat
PASI000954,PASF000244,ubs,Migração,Ativo,SB2PLUSMODEM,0039-GESAC2 200 (SB2+),00A0BCB813B0,,-7.046700954437256,-55.41940307617188,PA,FTB-007768,2019-07-10,2024-07-10,UBS,,,,2024-10-21,10,Offline,Viasat
RNSI000849,RNSI000849,ubs,Will Not Migrate,Bloqueados,SB2PLUSMODEM,0034-GESAC Brasil WiFi,00A0BCA8AA38,Frutuoso Gomes,-6.158480167388916,-37.8403205871582,RN,FTB-026490,2023-01-05,2028-01-05,UBS,,,,2024-10-31,0,Online,SES
PESI001293,PESI001293,ubs,Will Not Migrate,Bloqueados,SB2PLUSMODEM,0034-GESAC Brasil WiFi,00A0BC8E7B8C,Calumbi,-7.941490173339844,-38.15032958984375,PE,FTB-026660,2023-02-09,2028-02-09,UBS,0.0,0.0,0.0,2024-10-30,1,Online,Hughesnet
SESI000447,SESF000018,ubs,Migração,Ativo,SB2PLUSMODEM,0042-GESAC2 400 WIFI (SB2+),00A0BCA7E370,Ribeirópolis,-10.539509773254396,-37.41732025146485,SE,FTB-026524,2023-01-16,2028-01-16,UBS,19.780606002546847,2.3651622775942087,22.145768280141056,2024-10-22,9,Offline,SES
SESI000448,SESF000020,ubs,Migração,Ativo,SB2PLUSMODEM,0042-GESAC2 400 WIFI (SB2+),00A0BC9EA254,São Miguel do Aleixo,-10.388509750366213,-37.38132095336914,SE,FTB-026518,2023-01-13,2028-01-13,UBS,271.2330703260377,18.03910550288856,289.27217582892627,2024-10-31,0,Online,Hughesnet
MGSI000027,MGSF000690,quilombo,Migração,Ativo,SB2PLUSMODEM,0039-GESAC2 200 (SB2+),00A0BC4EC344,,-19.51111221313477,-43.77277755737305,MG,FTB-000113,2019-01-09,2024-01-09,Povos Originários,9.210673258639872,1.0402889223769307,10.250962181016805,2024-10-31,0,Online,Viasat
MGSI000112,MGSF000659,quilombo,Migração,Ativo,SB2PLUSMODEM,0039-GESAC2 200 (SB2+),00A0BCB9A25C,,-19.456945419311523,-46.31888961791992,MG,FTB-000204,2019-01-18,2024-01-18,Povos Originários,54.64298324659467,7.426236630417407,62.06921987701208,2024-10-31,0,Online,Hughesnet
MASI000358,MASI000358,quilombo,Other Providers,Terminated,SB2MODEM,0001-GESAC 10Mbps,NOT_AVAILABLE,ANAJATUBA,-3.3469998836517334,-44.604000091552734,MA,FTB-001461,2019-03-15,2024-03-15,Povos Originários,,,,2024-10-28,3,Online,Hughesnet
MASI000340,MASI000340,quilombo,Will Not Migrate,Terminated,SB2MODEM,0001-GESAC 10Mbps,NOT_AVAILABLE,MONCAO,-3.449399948120117,-45.20610046386719,MA,FTB-001555,2019-03-17,2024-03-17,Povos Originários,,,,2024-10-27,4,Atenção,Viasat
SPSI000014,SPSF000046,quilombo,Migração,Ativo,SB2PLUSMODEM,0039-GESAC2 200 (SB2+),00A0BC89D1E0,,-23.0,-46.85944366455078,SP,FTB-000139,2019-01-14,2024-01-14,Povos Originários,201.1938753752038,8.916169892065227,210.11004526726904,2024-10-30,1,Online,Viasat
BASI000170,BASI000170,quilombo,Will Not Migrate,Terminated,SB2MODEM,0001-GESAC 10Mbps,NOT_AVAILABLE,CAMPO FORMOSO,-10.18529987335205,-40.95500183105469,BA,FTB-000444,2019-02-06,2024-02-06,Povos Originários,,,,2024-10-31,0,Online,Viasat
MASI000534,MASI000534,quilombo,Will Not Migrate,Terminated,SB2MODEM,0001-GESAC 10Mbps,NOT_AVAILABLE,ALCÂNTARA,-2.430999994277954,-44.63800048828125,MA,FTB-001190,2019-03-09,2024-03-09,Povos Originários,,,,2024-10-31,0,Online,Viasat
MASI000707,MASF002003,quilombo,Migração,Ativo,SB2PLUSMODEM,0039-GESAC2 200,00A0BC78AD4C,Anajatuba,-3.5775814056396484,-44.82167816162109,Maranhão,FTB-000924,2019-02-26,2024-02-26,Povos Originários,0.4041321305558085,0.0379872797057032,0.4421194102615118,2024-10-29,2,Online,Viasat
PASI000489,PASI000489,quilombo,Will Not Migrate,Bloqueados,SB2MODEM,0001-GESAC 10Mbps,00A0BC39F693,SALVATERRA,-0.7595000267028809,-48.52320098876953,PA,FTB-001933,2019-03-27,2024-03-27,Povos Originários,0.0,0.0,0.0,2024-10-30,1,Online,SES
SPSI000064,SPSF000014,quilombo,Migração,Ativo,SB2PLUSMODEM,0039-GESAC2 200 (SB2+),00A0BCA896AC,SALTO DE PIRAPORA,-23.670299530029297,-47.65779876708984,SP,FTB-000768,2019-02-21,2024-02-21,Povos Originários,49.31742603238672,2.6879462441429496,52.00537227652967,2024-10-31,0,Online,Hughesnet
PASI000170,PASI000170,quilombo,Other Providers,Terminated,SB2MODEM,0001-GESAC 10Mbps,00A0BC3F96AC,SALVATERRA,-0.7820000052452087,-48.5369987487793,PA,FTB-001841,2019-03-26,2024-03-26,Povos Originários,,,,2024-10-30,1,Online,Viasat
PASI000427,PASI000427,quilombo,Other Providers,Terminated,SB2MODEM,0001-GESAC 10Mbps,00A0BC34DA0D,SALVATERRA,-0.7631000280380249,-48.58470153808594,PA,FTB-002022,2019-03-29,2024-03-29,Povos Originários,0.0,0.0,0.0,2024-10-28,3,Online,Hughesnet
PASI000068,PASI000068,quilombo,Other Providers,Terminated,SB2MODEM,0001-GESAC 10Mbps,NOT_AVAILABLE,BUJARU,-1.5149999856948853,-48.04499816894531,PA,FTB-001710,2019-03-21,2024-03-21,Povos Originários,,,,2024-10-26,5,Atenção,Hughesnet
BASI000345,BASF000984,quilombo,Migração,Ativo,SB2PLUSMODEM,0042-GESAC2 400 WIFI (SB2+),00A0BC6241E0,,-12.777777671813965,-38.9194450378418,BA,FTB-007070,2019-06-27,2024-06-27,Povos Originários,437.4856418389827,50.718259579502046,488.2039014184848,2024-10-24,7,Offline,Hughesnet
PESI000196,PESF000306,quilombo,Migração,Ativo,SB2PLUSMODEM,0039-GESAC2 200 (SB2+),00A0BCBB42A0,,-8.512490272521973,-39.30734252929688,PE,FTB-001337,2019-03-13,2024-03-13,Povos Originários,77.88759724609554,6.916813916526735,84.80441116262227,2024-10-29,2,Online,SES
SPSI000069,SPSF000007,quilombo,Migração,Ativo,SB2MODEM,0039-GESAC2 200 (SB2+),00A0BC3B7AAA,IGUAPE,-24.707000732421875,-47.557498931884766,SP,FTB-002218,2019-04-03,2024-04-03,Povos Originários,76.51418791990727,5.810134713537991,82.32432263344526,2024-10-25,6,Offline,Viasat
BASI000924,BASI000924,quilombo,Other Providers,Terminated,SB2MODEM,0001-GESAC 10Mbps,NOT_AVAILABLE,BOM JESUS DA LAPA,-13.725600242614746,-43.494998931884766,BA,FTB-007583,2019-07-05,2024-07-05,Povos Originários,,,,2024-10-19,12,Offline,Viasat
RSSI000114,RSSF000104,quilombo,Migração,Ativo,SB2PLUSMODEM,0039-GESAC2 200 (SB2+),00A0BCA878C0,,-30.95250129699707,-53.72833251953125,RS,FTB-002134,2019-04-01,2024-04-01,Povos Originários,96.47039361204952,8.03518592286855,104.50557953491808,2024-10-23,8,Offline,SES
MGSI000079,MGSF000500,quilombo,Migração,Ativo,SB2PLUSMODEM,0039-GESAC2 200 (SB2+),00A0BC7299BC,,-16.062223434448242,-44.56916809082031,MG,FTB-002491,2019-04-07,2024-04-07,Povos Originários,76.57512909825891,8.275732499547303,84.85086159780622,2024-10-20,11,Offline,Hughesnet
MGSI000241,MGSF000641,quilombo,Migração,Ativo,SB2PLUSMODEM,0039-GESAC2 200 (SB2+),00A0BCA1B5BC,,-16.210556030273438,-43.41777801513672,MG,FTB-002940,2019-04-17,2024-04-17,Povos Originários,43.68247447069734,4.1371824545785785,47.81965692527592,2024-10-28,3,Online,Viasat
MGSI000238,MGSF000618,quilombo,Migração,Ativo,SB2PLUSMODEM,0039-GESAC2 200 (SB2+),00A0BC62B044,,-16.717792510986328,-42.86589431762695,MG,FTB-002395,2019-04-05,2024-04-05,Povos Originários,74.84567588753998,4.825707936659455,79.67138382419944,2024-10-28,3,Online,Viasat
MGSI000446,MGSI000446,quilombo,Will Not Migrate,Terminated,SB2MODEM,0001-GESAC 10Mbps,NOT_AVAILABLE,OURO VERDE DE MINAS,-18.069000244140625,-41.27000045776367,MG,FTB-005049,2019-05-28,2024-05-28,Povos Originários,,,,2024-10-25,6,Offline,Viasat
PASI000092,PASI000092,quilombo,Other Providers,Terminated,SB2MODEM,0001-GESAC 10Mbps,NOT_AVAILABLE,ABAETETUBA,-1.75600004196167,-48.89799880981445,PA,FTB-004044,2019-05-14,2024-05-14,Povos Originários,,,,2024-10-31,0,Online,Hughesnet
MASI000218,MASI000218,quilombo,Other Providers,Terminated,SB2MODEM,0001-GESAC 10Mbps,NOT_AVAILABLE,MIRINZAL,-2.032700061798096,-44.77099990844727,MA,FTB-003379,2019-04-26,2024-04-26,Povos Originários,,,,2024-10-29,2,Online,SES
PESI000197,PESI000197,quilombo,Will Not Migrate,Terminated,SB2MODEM,0001-GESAC 10Mbps,NOT_AVAILABLE,MIRANDIBA,-8.218000411987305,-38.742000579833984,PE,FTB-003188,2019-04-24,2024-04-24,Povos Originários,,,,2024-10-26,5,Atenção,SES
PESI000432,PESF000370,quilombo,Migração,Ativo,SB2PLUSMODEM,0039-GESAC2 200 (SB2+),00A0BCAE225C,,-8.119490623474121,-38.728328704833984,PE,FTB-003199,2019-04-24,2024-04-24,Povos Originários,22.83114850707352,1.3119072448462248,24.143055751919743,2024-10-21,10,Offline,Viasat
PESI000433,PESF000371,quilombo,Migração,Ativo,SB2PLUSMODEM,0039-GESAC2 200 (SB2+),00A0BC621ACC,,-8.119490623474121,-38.728328704833984,PE,FTB-003134,2019-04-23,2024-04-23,Povos Originários,8.329320713877678,0.4580878838896751,8.787408597767353,2024-10-31,0,Online,Hughesnet
ALSI000046,ALSF000100,quilombo,Migração,Ativo,SB2PLUSMODEM,0039-GESAC2 200 (SB2+),00A0BC97D8CC,,-9.663056373596191,-35.71305465698242,AL,FTB-009464,2019-08-29,2024-08-29,Povos Originários,23.844176470302045,4.35043385438621,28.194610324688256,2024-10-24,7,Offline,Viasat
PESI000198,PESF000413,quilombo,Migração,Ativo,SB2PLUSMODEM,0039-GESAC2 200 (SB2+),00A0BCDA1DD0,,-8.067489624023438,-39.120338439941406,PE,FTB-002982,2019-04-18,2024-04-18,Povos Originários,130.96775647997856,9.150647317059338,140.1184037970379,2024-10-27,4,Atenção,SES
PESI000400,PESF000318,quilombo,Migração,Ativo,SB2PLUSMODEM,0042-GESAC2 400 WIFI (SB2+),00A0BC74FC50,,-7.976480484008789,-37.63561630249024,PE,FTB-003642,2019-05-03,2024-05-03,Povos Originários,365.1791421817616,40.22180306352675,405.4009452452883,2024-10-20,11,Offline,Hughesnet
PESI000436,PESF000414,quilombo,Migração,Ativo,SB2PLUSMODEM,0039-GESAC2 200 (SB2+),00A0BC4BEAC8,,-8.067489624023438,-39.120338439941406,PE,FTB-002980,2019-04-18,2024-04-18,Povos Originários,10.741658579558134,2.0858117006719112,12.827470280230044,2024-10-22,9,Offline,SES
SPSI000018,SPSF000031,quilombo,Migração,Ativo,SB2PLUSMODEM,0039-GESAC2 200 (SB2+),00A0BCB89CE4,,-24.526933670043945,-48.108211517333984,SP,FTB-003076,2019-04-22,2024-04-22,Povos Originários,3.7997961044311523e-07,0.0,3.7997961044311523e-07,2024-10-25,6,Offline,Viasat
SPSI000019,SPSF000032,quilombo,Migração,Ativo,SB2PLUSMODEM,0039-GESAC2 200 (SB2+),00A0BC9EF37C,,-24.61027717590332,-48.12972259521485,SP,FTB-006406,2019-06-13,2024-06-13,Povos Originários,23.43567387294024,1.986814683303237,25.42248855624348,2024-10-28,3,Online,Hughesnet
SPSI000020,SPSF000033,quilombo,Migração,Ativo,SB2PLUSMODEM,0039-GESAC2 200 (SB2+),00A0BC5A324C,,-24.522499084472656,-48.40416717529297,SP,FTB-006508,2019-06-14,2024-06-14,Povos Originários,330.1398364771157,23.091315414756536,353.2311518918723,2024-10-30,1,Online,SES
SPSI000022,SPSF000034,quilombo,Migração,Ativo,SB2PLUSMODEM,0039-GESAC2 200 (SB2+),00A0BC755418,,-24.600000381469727,-48.40694427490234,SP,FTB-006848,2019-06-20,2024-06-20,Povos Originários,258.8135431148112,35.31006566807628,294.12360878288746,2024-10-30,1,Online,Hughesnet
SPSI000084,SPSF000120,quilombo,Migração,Ativo,SB2PLUSMODEM,0039-GESAC2 200 (SB2+),00A0BC71EAD8,,-24.75655174255371,-48.50543975830078,SP,FTB-006849,2019-06-20,2024-06-20,Povos Originários,118.709328324534,11.18607564177364,129.89540396630764,2024-10-23,8,Offline,Viasat
SPSI000026,SPSI000026,quilombo,Will Not Migrate,Terminated,SB2MODEM,0001-GESAC 10Mbps,NOT_AVAILABLE,BARRA DO TURVO,-24.90250015258789,-48.47560119628906,SP,FTB-006838,2019-06-20,2024-06-20,Povos Originários,,,,2024-10-31,0,Online,Viasat
PESI000429,PESF000304,quilombo,Migração,Ativo,SB2PLUSMODEM,0039-GESAC2 200 (SB2+),00A0BCDB7A44,,-8.512490272521973,-39.30734252929688,PE,FTB-003297,2019-04-25,2024-04-25,Povos Originários,22.383187033236027,2.8087844401597977,25.191971473395824,2024-10-31,0,Online,Hughesnet
PESI000430,PESF000305,quilombo,Migração,Ativo,SB2PLUSMODEM,0039-GESAC2 200 (SB2+),00A0BCB96400,,-8.512490272521973,-39.30734252929688,PE,FTB-003300,2019-04-25,2024-04-25,Povos Originários,101.85216412413864,6.289649653248489,108.14181377738714,2024-10-29,2,Online,SES
MASI000993,MASI000993,quilombo,Will Not Migrate,Terminated,SB2MODEM,0001-GESAC 10Mbps,NOT_AVAILABLE,PRESIDENTE VARGAS,-3.36299991607666,-43.97299957275391,MA,FTB-003689,2019-05-04,2024-05-04,Povos Originários,,,,2024-10-30,1,Online,Hughesnet
TOSI000008,TOSF000084,quilombo,Migração,Ativo,SB2PLUSMODEM,0039-GESAC2 200 (SB2+),00A0BCA4BD70,,-10.276389122009276,-47.71666717529297,TO,FTB-006306,2019-06-12,2024-06-12,Povos Originários,4.587015871889889,0.280367043800652,4.867382915690541,2024-10-31,0,Online,Viasat
TOSI000007,TOSF000057,quilombo,Migração,Ativo,SB2PLUSMODEM,0039-GESAC2 200 (SB2+),00A0BCB825E8,,-10.547499656677246,-46.42111206054688,TO,FTB-006952,2019-06-25,2024-06-25,Povos Originários,75.5833888836205,5.2151139648631215,80.79850284848362,2024-10-31,0,Online,Viasat
SPSI000188,SPSF000040,quilombo,Migração,Ativo,SB2PLUSMODEM,0039-GESAC2 200 (SB2+),00A0BCB99B88,,-24.4869441986084,-48.48250198364258,SP,FTB-006530,2019-06-14,2024-06-14,Povos Originários,225.29278146848085,17.241893721744418,242.53467519022524,2024-10-30,1,Online,Hughesnet
BASI000727,BASI000727,quilombo,Will Not Migrate,Terminated,SB2MODEM,0001-GESAC 10Mbps,NOT_AVAILABLE,Cachoeira,-12.68970012664795,-38.85689926147461,BA,FTB-004992,2019-05-27,2024-05-27,Povos Originários,,,,2024-10-23,8,Offline,Viasat
CESI000606,CESF000003,quilombo,Migração,Ativo,SB2PLUSMODEM,0039-GESAC2 200 (SB2+),00A0BCB1EFEC,Baturité,-4.377500057220459,-38.91719818115234,CE,FTB-006629,2019-06-17,2024-06-17,Povos Originários,,,,2024-10-28,3,Online,Hughesnet
BASI001024,BASF000991,quilombo,Migração,Ativo,SB2PLUSMODEM,0039-GESAC2 200 (SB2+),00A0BCA4A7C0,,-14.183611869812012,-39.198333740234375,BA,FTB-005931,2019-06-06,2024-06-06,Povos Originários,189.61641098652035,11.575139349326491,201.19155033584684,2024-10-29,2,Online,Viasat
ROSI000014,ROSF000167,quilombo,Migração,Ativo,SB2PLUSMODEM,0039-GESAC2 200,00A0BC6BF808,,-12.851343154907228,-62.90240097045898,RO,FTB-009724,2019-09-24,2024-09-24,Povos Originários,175.43768927641213,13.061648232862352,188.49933750927448,2024-10-22,9,Offline,Hughesnet
PASI000483,PASI000483,quilombo,Will Not Migrate,Terminated,SB2MODEM,0001-GESAC 10Mbps,NOT_AVAILABLE,Oriximiná,-1.7757999897003174,-55.86389923095703,PA,FTB-006778,2019-06-19,2024-06-19,Povos Originários,,,,2024-10-30,1,Online,SES
PASI000612,PASI000612,quilombo,Other Providers,Terminated,SB2MODEM,0001-GESAC 10Mbps,00A0BC359B63,Acará,-1.9600000381469729,-48.20000076293945,PA,FTB-008560,2019-07-26,2024-07-26,Povos Originários,0.0,0.0,0.0,2024-10-30,1,Online,SES
BASI001439,BASF001932,quilombo,Migração,Ativo,SB2PLUSMODEM,0039-GESAC2 200,NOT_AVAILABLE,Wenceslau Guimarães,-13.602075576782228,-39.69977188110352,Bahia,FTB-008171,2019-07-18,2024-07-18,Povos Originários,,,,2024-10-31,0,Online,Viasat
BASI000183,BASI000183,quilombo,Will Not Migrate,Terminated,SB2MODEM,0001-GESAC 10Mbps,NOT_AVAILABLE,Sítio do Mato,-12.76360034942627,-43.3130989074707,BA,FTB-008725,2019-07-30,2024-07-30,Povos Originários,,,,2024-10-28,3,Online,Viasat
TOSI000073,TOSF000028,quilombo,Migração,Ativo,SB2PLUSMODEM,0039-GESAC2 200 (SB2+),00A0BCC40860,,-12.71243667602539,-47.004127502441406,TO,FTB-007388,2019-07-03,2024-07-03,Povos Originários,264.7126151956618,24.467596635222435,289.1802118308842,2024-10-30,1,Online,SES
MSSI000046,MSSI000046,quilombo,Will Not Migrate,Terminated,SB2MODEM,0001-GESAC 10Mbps,NOT_AVAILABLE,Campo Grande,-20.424400329589844,-54.61640167236328,MS,FTB-008045,2019-07-16,2024-07-16,Povos Originários,,,,2024-10-24,7,Offline,SES
PASI001684,PASI001684,quilombo,Other Providers,Reduced,SB2MODEM,0001-GESAC 10Mbps,NOT_AVAILABLE,Salvaterra,-0.7317000031471252,-48.64690017700195,PA,FTB-010963,2019-12-04,2024-12-04,Povos Originários,,,,2024-10-24,7,Offline,Hughesnet
BASI002059,BASI002059,quilombo,Will Not Migrate,Reduced,SB2MODEM,0001-GESAC 10Mbps,NOT_AVAILABLE,Itacaré,-12.260600090026855,-38.722801208496094,BA,FTB-012367,2020-07-16,2025-07-16,Povos Originários,,,,2024-10-29,2,Online,SES
BASI002061,BASI002061,quilombo,Will Not Migrate,Reduced,SB2MODEM,0001-GESAC 10Mbps,NOT_AVAILABLE,Itacaré,-14.28444480895996,-39.05305480957031,BA,FTB-012392,2020-07-17,2025-07-17,Povos Originários,,,,2024-10-29,2,Online,SES
BASI002060,BASI002060,quilombo,Will Not Migrate,Reduced,SB2MODEM,0001-GESAC 10Mbps,NOT_AVAILABLE,Itacaré,-12.260600090026855,-38.722801208496094,BA,FTB-012397,2020-07-17,2025-07-17,Povos Originários,,,,2024-10-27,4,Atenção,Viasat
MASI001502,MASF001531,quilombo,Migração,Ativo,SB2PLUSMODEM,0039-GESAC2 200,00A0BC89C98C,,-3.687952518463135,-44.044212341308594,MA,FTB-012591,2020-07-25,2025-07-25,Povos Originários,65.21117355115712,4.5680422112345695,69.77921576239169,2024-10-31,0,Online,Hughesnet
MASI001504,MASF000898,quilombo,Migração,Ativo,SB2PLUSMODEM,0039-GESAC2 200,00A0BC89B6FC,,-2.7416486740112305,-43.95011520385742,MA,FTB-012590,2020-07-25,2025-07-25,Povos Originários,265.82472474779934,15.336892898194492,281.16161764599383,2024-10-31,0,Online,Hughesnet
MASI001511,MASI001511,quilombo,Will Not Migrate,Reduced,SB2MODEM,0001-GESAC 10Mbps,NOT_AVAILABLE,Colinas,-6.261899948120117,-43.97100067138672,MA,FTB-012495,2020-07-21,2025-07-21,Povos Originários,,,,2024-10-31,0,Online,SES
MASI001503,MASI001503,quilombo,Will Not Migrate,Reduced,SB2MODEM,0001-GESAC 10Mbps,NOT_AVAILABLE,Cururupu,-1.9287999868392944,-44.78310012817383,MA,FTB-012637,2020-07-30,2025-07-30,Povos Originários,,,,2024-10-31,0,Online,SES
MASI001513,MASF000739,quilombo,Migração,Ativo,SB2PLUSMODEM,0039-GESAC2 200,00A0BC65D144,,-4.759573459625244,-44.09922790527344,MA,FTB-012632,2020-07-29,2025-07-29,Povos Originários,386.1926934309304,26.93979645706713,413.1324898879975,2024-10-27,4,Atenção,Viasat
MASI001508,MASF001049,quilombo,Migração,Ativo,SB2PLUSMODEM,0039-GESAC2 200,00A0BC62CA44,,-2.03770112991333,-44.76509094238281,MA,FTB-012635,2020-07-29,2025-07-29,Povos Originários,26.439777343533933,2.838965753093362,29.27874309662729,2024-10-28,3,Online,Viasat
MASI001512,MASF001050,quilombo,Migração,Ativo,SB2PLUSMODEM,0039-GESAC2 200,00A0BCB9F440,,-1.952190637588501,-44.77097702026367,MA,FTB-012627,2020-07-29,2025-07-29,Povos Originários,111.3328375313431,9.920606856234372,121.25344438757747,2024-10-25,6,Offline,Viasat
PASI001820,PASI001820,quilombo,Other Providers,Reduced,SB2MODEM,0001-GESAC 10Mbps,NOT_AVAILABLE,Salvaterra,-0.8016999959945679,-48.5801010131836,PA,FTB-012233,2020-07-10,2025-07-10,Povos Originários,,,,2024-10-05,26,Offline,Hughesnet
PBSI000308,PBSI000308,quilombo,Will Not Migrate,Terminated,SB2MODEM,0001-GESAC 10Mbps,NOT_AVAILABLE,Manaíra,-7.706490039825439,-38.15433120727539,PB,FTB-014069,2024-09-04,2029-09-04,Povos Originários,,,,2024-10-30,1,Online,Hughesnet
PASI001933,PASI001933,quilombo,Will Not Migrate,Terminated,SB2MODEM,0001-GESAC 10Mbps,NOT_AVAILABLE,Gurupá,-1.4054399728775024,-51.640419006347656,PA,FTB-014206,2024-10-11,2029-10-11,Povos Originários,,,,2024-10-30,1,Online,Hughesnet
ALSI000710,ALSI000710,quilombo,Will Not Migrate,Terminated,SB2MODEM,0001-GESAC 10Mbps,NOT_AVAILABLE,Santana do Mundaú,-9.168499946594238,-36.22230911254883,AL,FTB-014097,2024-09-30,2029-09-30,Povos Originários,,,,2024-10-31,0,Online,Hughesnet
MASI001759,MASI001759,quilombo,Will Not Migrate,Terminated,SB2MODEM,0001-GESAC 10Mbps,NOT_AVAILABLE,Turilândia,-2.044668197631836,-45.96722030639648,MA,FTB-014176,2024-09-21,2029-09-21,Povos Originários,,,,2024-10-27,4,Atenção,SES
MASI001767,MASF001219,quilombo,Migração,Ativo,SB2PLUSMODEM,0039-GESAC2 200,00A0BC6B6AF4,,-2.485734462738037,-45.3515739440918,MA,FTB-014323,2021-05-23,2026-05-23,Povos Originários,313.92844997905195,41.38738568127155,355.3158356603235,2024-10-28,3,Online,Viasat
MASI001769,MASI001769,quilombo,Will Not Migrate,Terminated,SB2MODEM,0001-GESAC 10Mbps,NOT_AVAILABLE,Anajatuba,-3.2644600868225098,-44.62036895751953,MA,FTB-014363,2023-11-08,2028-11-08,Povos Originários,,,,2024-10-28,3,Online,Viasat
MGSI000788,MGSF000315,quilombo,Migração,Ativo,SB2PLUSMODEM,0042-GESAC2 400 WIFI (SB2+),00A0BC97EEDC,Virgem da Lapa,-16.80449867248535,-42.34010696411133,MG,FTB-014789,2021-09-21,2026-09-21,Povos Originários,23.205110399983823,2.6015784787014127,25.80668887868524,2024-10-20,11,Offline,Hughesnet
ALSI000785,ALSF000374,quilombo,Migração,Ativo,SB2PLUSMODEM,0039-GESAC2 200,00A0BCB7ECE4,Santana do Mundaú,-9.168499946594238,-36.22230911254883,AL,FTB-014888,2021-09-29,2026-09-29,Povos Originários,23.021336818113923,3.533484091982245,26.55482091009617,2024-10-31,0,Online,Hughesnet
ALSI000722,ALSF000273,quilombo,Migração,Ativo,SB2PLUSMODEM,0039-GESAC2 200,00A0BC94B03C,Água Branca,-9.262499809265137,-37.93833160400391,AL,FTB-014699,2021-09-13,2026-09-13,Povos Originários,26.52408070396632,5.032898185774684,31.556978889741004,2024-10-31,0,Online,Viasat
ALSI000727,ALSF000259,quilombo,Migração,Ativo,SB2PLUSMODEM,0039-GESAC2 200,00A0BCA7DF60,Arapiraca,-9.7524995803833,-36.661319732666016,AL,FTB-014721,2021-09-15,2026-09-15,Povos Originários,5.057315729558468,0.9441325068473816,6.0014482364058495,2024-10-29,2,Online,SES
ALSI000728,ALSI000728,quilombo,Will Not Migrate,Bloqueados,SB2MODEM,0001-GESAC 10Mbps,00A0BC31DE83,Batalha,-9.678500175476074,-37.12532043457031,AL,FTB-014720,2021-09-15,2026-09-15,Povos Originários,,,,2024-10-31,0,Online,Hughesnet
ALSI000723,ALSF000272,quilombo,Migração,Ativo,SB2PLUSMODEM,0039-GESAC2 200,00A0BCA87190,Água Branca,-9.262499809265137,-37.93833160400391,AL,FTB-014710,2021-09-14,2026-09-14,Povos Originários,221.72159557510167,15.286965844221411,237.0085614193231,2024-10-31,0,Online,Hughesnet
ALSI000724,ALSF000230,quilombo,Migração,Ativo,SB2PLUSMODEM,0039-GESAC2 200,00A0BCB1AB00,Água Branca,-9.262499809265137,-37.93833160400391,AL,FTB-014936,2021-10-04,2026-10-04,Povos Originários,73.36009274888784,3.8270767414942384,77.18716949038208,2024-10-29,2,Online,Viasat
MGSI000815,MGSF000254,quilombo,Migração,Ativo,SB2PLUSMODEM,0042-GESAC2 400 WIFI (SB2+),00A0BC8E7248,Sabinópolis,-18.666540145874023,-43.084381103515625,MG,FTB-015026,2021-10-18,2026-10-18,Povos Originários,18.219023254700005,2.335640729404986,20.55466398410499,2024-10-30,1,Online,Viasat
MSSI000292,MSSI000292,quilombo,Will Not Migrate,Bloqueados,SB2MODEM,0001-GESAC 10Mbps,00A0BC41AEAF,Sonora,-17.577510833740234,-54.75846099853516,MS,FTB-015080,2021-10-21,2026-10-21,Povos Originários,1.9278377294540405e-05,0.0,1.9278377294540405e-05,2024-10-20,11,Offline,Hughesnet
RNSI000514,RNSF000015,quilombo,Migração,Ativo,SB2PLUSMODEM,0042-GESAC2 400 WIFI (SB2+),00A0BC9E950C,Currais Novos,-6.26147985458374,-36.51530838012695,RN,FTB-015135,2021-10-25,2026-10-25,Povos Originários,807.0910787973553,75.8805380994454,882.9716168968007,2024-10-29,2,Online,Viasat
MSSI000320,MSSI000320,quilombo,Will Not Migrate,Bloqueados,SB2MODEM,0001-GESAC 10Mbps,00A0BC31F7A1,Pedro Gomes,-18.10150909423828,-54.55245971679688,MS,FTB-015400,2021-12-16,2026-12-16,Povos Originários,,,,2024-10-30,1,Online,Viasat
MGSI000854,MGSI000854,quilombo,Will Not Migrate,Bloqueados,SB2PLUSMODEM,0034-GESAC Brasil WiFi,00A0BCB1D684,Bocaiúva,-17.370370864868164,-43.313514709472656,MG,FTB-015198,2021-10-29,2026-10-29,Povos Originários,,,,2024-10-24,7,Offline,SES
MASI001773,MASF000888,quilombo,Migração,Ativo,SB2PLUSMODEM,0039-GESAC2 200,00A0BCBA24D0,,-2.0644445419311523,-44.62646865844727,MA,FTB-015414,2021-12-17,2026-12-17,Povos Originários,7.518469910137355,0.7125260960310698,8.230996006168425,2024-10-23,8,Offline,SES
ESSI000529,ESSF000200,quilombo,Migração,Bloqueados,SB2PLUSMODEM,0039-GESAC2 200 (SB2+),00A0BC65EFD4,,-18.593551635742188,-39.73234939575195,ES,FTB-016023,2022-02-09,2027-02-09,Povos Originários,,,,2024-10-26,5,Atenção,Viasat
ESSI000535,ESSF000202,quilombo,Migração,Bloqueados,SB2PLUSMODEM,0039-GESAC2 200 (SB2+),00A0BC730380,,-18.593551635742188,-39.73234939575195,ES,FTB-016032,2022-02-10,2027-02-10,Povos Originários,,,,2024-10-27,4,Atenção,Viasat
ESSI000536,ESSI000536,quilombo,Will Not Migrate,Bloqueados,SB2MODEM,0009-Telebras Plan 3 - 20Mbps,00A0BC361832,Conceição da Barra,-18.593549728393555,-39.73234939575195,ES,FTB-013214,2022-02-10,2027-02-10,Povos Originários,,,,2024-10-28,3,Online,Viasat
MGSI001056,MGSI001056,quilombo,Will Not Migrate,Bloqueados,SB2PLUSMODEM,0034-GESAC Brasil WiFi,00A0BCA4CDE8,Carmo da Mata,-20.55854034423828,-44.87139892578125,MG,FTB-015588,2022-01-11,2027-01-11,Povos Originários,,,,2024-10-30,1,Online,Viasat
ESSI000690,ESSI000690,quilombo,Will Not Migrate,Bloqueados,SB2PLUSMODEM,0034-GESAC Brasil WiFi,00A0BC940524,Linhares,-19.39155006408692,-40.07236099243164,ES,FTB-015834,2022-01-27,2027-01-27,Povos Originários,0.1027295934036374,0.5313054108992219,0.6340350043028593,2024-10-24,7,Offline,Viasat
ALSI000992,ALSF000346,quilombo,Migração,Ativo,SB2PLUSMODEM,0039-GESAC2 200,00A0BCA51A6C,Arapiraca,-9.7524995803833,-36.661319732666016,AL,FTB-015882,2022-01-31,2027-01-31,Povos Originários,24.833956392481923,1.6189483404159546,26.45290473289788,2024-10-31,0,Online,Viasat
ALSI000994,ALSF000243,quilombo,Migração,Ativo,SB2PLUSMODEM,0039-GESAC2 200,00A0BCA4A164,Belém,-9.571499824523926,-36.4923210144043,AL,FTB-015943,2022-02-04,2027-02-04,Povos Originários,95.80209795106202,4.494743993505836,100.29684194456786,2024-10-29,2,Online,Viasat
ALSI000997,ALSF000268,quilombo,Migração,Ativo,SB2PLUSMODEM,0039-GESAC2 200,00A0BC982114,Cacimbinhas,-9.400500297546388,-36.99031829833984,AL,FTB-015846,2022-01-28,2027-01-28,Povos Originários,6.335756303742528,0.631635251455009,6.967391555197537,2024-10-26,5,Atenção,SES
ALSI001000,ALSF000292,quilombo,Migração,Ativo,SB2PLUSMODEM,0039-GESAC2 200,00A0BC8E3AE0,Canapi,-9.1274995803833,-37.60531997680664,AL,FTB-016020,2022-02-09,2027-02-09,Povos Originários,335.35183975379914,27.408948403783143,362.7607881575823,2024-10-26,5,Atenção,Hughesnet
ALSI000993,ALSF000351,quilombo,Migração,Ativo,SB2PLUSMODEM,0039-GESAC2 200,00A0BC69F1A8,Japaratinga,-9.088500022888184,-35.25830841064453,AL,FTB-015999,2022-02-08,2027-02-08,Povos Originários,74.46382080670446,8.147555269300938,82.6113760760054,2024-10-29,2,Online,SES
ALSI001003,ALSF000296,quilombo,Migração,Ativo,SB2PLUSMODEM,0039-GESAC2 200,00A0BCB97204,Major Isidoro,-9.532500267028809,-36.98532104492188,AL,FTB-015839,2022-01-28,2027-01-28,Povos Originários,82.35888250824064,3.806368237361312,86.16525074560195,2024-10-30,1,Online,Viasat
ALSI001010,ALSI001010,quilombo,Will Not Migrate,Bloqueados,SB2MODEM,0001-GESAC 10Mbps,00A0BC34BBEF,Olho D'Água das Flores,-9.536499977111816,-37.29431915283203,AL,FTB-015902,2022-02-01,2027-02-01,Povos Originários,,,,2024-10-24,7,Offline,Viasat
ALSI000996,ALSF000256,quilombo,Migração,Ativo,SB2PLUSMODEM,0039-GESAC2 200,00A0BCA7F440,Palestina,-9.672499656677246,-37.32931900024414,AL,FTB-015863,2022-01-29,2027-01-29,Povos Originários,32.86969075258821,2.2767221312969923,35.146412883885205,2024-10-29,2,Online,Hughesnet
ALSI000999,ALSF000290,quilombo,Migração,Ativo,SB2PLUSMODEM,0039-GESAC2 200,00A0BCB8C564,Palmeira dos Índios,-9.407500267028809,-36.62831878662109,AL,FTB-015942,2022-02-04,2027-02-04,Povos Originários,21.93079570773989,0.9700678484514356,22.900863556191325,2024-10-26,5,Atenção,Viasat
ALSI001005,ALSI001005,quilombo,Will Not Migrate,Bloqueados,SB2MODEM,0001-GESAC 10Mbps,00A0BC32389D,Santa Luzia do Norte,-9.603500366210938,-35.82231140136719,AL,FTB-015926,2022-02-03,2027-02-03,Povos Originários,,,,2024-10-31,0,Online,Hughesnet
ALSI001011,ALSF000334,quilombo,Migração,Ativo,SB2PLUSMODEM,0039-GESAC2 200,00A0BCA16C54,Igreja Nova,-10.125510215759276,-36.66231918334961,AL,FTB-015881,2022-01-31,2027-01-31,Povos Originários,64.6377964541316,3.045649657957256,67.68344611208886,2024-10-31,0,Online,Viasat
ALSI001006,ALSF000325,quilombo,Migração,Ativo,SB2PLUSMODEM,0039-GESAC2 200,00A0BCB6D164,Monteirópolis,-9.603500366210938,-37.248321533203125,AL,FTB-015862,2022-01-29,2027-01-29,Povos Originários,25.032073639333248,2.4663129691034555,27.498386608436704,2024-10-30,1,Online,Hughesnet
ALSI001002,ALSF000295,quilombo,Migração,Ativo,SB2PLUSMODEM,0039-GESAC2 200,00A0BCA1B6EC,Pariconha,-9.25450038909912,-38.00632858276367,AL,FTB-015925,2022-02-03,2027-02-03,Povos Originários,18.42210307065397,0.9644628409296274,19.3865659115836,2024-10-28,3,Online,SES
ALSI001008,ALSF000330,quilombo,Migração,Ativo,SB2PLUSMODEM,0039-GESAC2 200,00A0BCA17F8C,Santana do Mundaú,-9.076355934143066,-36.14884567260742,AL,FTB-015915,2022-02-02,2027-02-02,Povos Originários,118.07768379058687,11.041556156240404,129.1192399468273,2024-10-30,1,Online,Hughesnet
ALSI001009,ALSF000333,quilombo,Migração,Ativo,SB2PLUSMODEM,0039-GESAC2 200,00A0BCB7DDB0,São José da Tapera,-9.558500289916992,-37.38132095336914,AL,FTB-015906,2022-02-02,2027-02-02,Povos Originários,40.29045732039958,2.3729231311008334,42.663380451500416,2024-10-31,0,Online,Hughesnet
MGSI001129,MGSF000173,quilombo,Migração,Ativo,SB2PLUSMODEM,0042-GESAC2 400 WIFI (SB2+),00A0BC8F58AC,Jenipapo de Minas,-17.08353042602539,-42.25836944580078,MG,FTB-016015,2022-02-09,2027-02-09,Povos Originários,7.220639647915959,1.060312726534903,8.280952374450862,2024-10-28,3,Online,Hughesnet
MGSI000875,MGSF000165,quilombo,Migração,Ativo,SB2PLUSMODEM,0042-GESAC2 400 WIFI (SB2+),00A0BC9E9A70,Jaboticatubas,-19.51453971862793,-43.745391845703125,MG,FTB-015921,2022-02-03,2027-02-03,Povos Originários,17.02983827702701,1.2865127325057983,18.31635100953281,2024-10-20,11,Offline,SES
MGSI000869,MGSI000869,quilombo,Will Not Migrate,Bloqueados,SB2PLUSMODEM,0034-GESAC Brasil WiFi,00A0BCA1B280,Paraopeba,-19.27453994750977,-44.404388427734375,MG,FTB-016071,2022-02-16,2027-02-16,Povos Originários,0.0144423069432377,0.0232559274882078,0.0376982344314456,2024-10-29,2,Online,Viasat
MGSI000870,MGSF000117,quilombo,Migração,Ativo,SB2PLUSMODEM,0042-GESAC2 400 WIFI (SB2+),00A0BCA4D830,Fortuna de Minas,-19.56154060363769,-44.447391510009766,MG,FTB-015827,2022-01-27,2027-01-27,Povos Originários,12.146660456433892,2.1627219254150987,14.309382381848993,2024-10-28,3,Online,Viasat
MGSI000871,MGSF000118,quilombo,Migração,Ativo,SB2PLUSMODEM,0042-GESAC2 400 WIFI (SB2+),00A0BC9817AC,Fortuna de Minas,-19.56154060363769,-44.447391510009766,MG,FTB-016344,2022-03-18,2027-03-18,Povos Originários,41.42457152623683,3.5276570143178105,44.95222854055464,2024-10-30,1,Online,Viasat
GOSI000191,GOSI000191,quilombo,Will Not Migrate,Bloqueados,SB2MODEM,0001-GESAC 10Mbps,00A0BC363AE1,DIVINOPÓLIS DE GOIÁS,-13.295510292053224,-46.39339065551758,GO,FTB-016797,2022-04-08,2027-04-08,Povos Originários,,,,2024-10-31,0,Online,Hughesnet
ROSI000477,ROSF000052,quilombo,Migração,Ativo,SB2PLUSMODEM,0042-GESAC2 400 WIFI (SB2+),00A0BCA4D818,Costa Marques,-12.445480346679688,-64.22750091552734,RO,FTB-016858,2022-04-09,2027-04-09,Povos Originários,35.83413475379348,3.325011075474322,39.1591458292678,2024-10-26,5,Atenção,Viasat
MASI002674,MASI002674,quilombo,Will Not Migrate,Bloqueados,SB2MODEM,0001-GESAC 10Mbps,00A0BC36EBC8,Cachoeira Grande,-2.931115865707397,-44.05315399169922,MA,FTB-016937,2022-04-12,2027-04-12,Povos Originários,0.0,0.0,0.0,2024-10-29,2,Online,Viasat
BASI002529,BASF002054,quilombo,Migração,Ativo,SB2PLUSMODEM,0039-GESAC2 200,00A0BC943228,Pedrão,-12.138778686523438,-38.62930679321289,BA,FTB-017520,2022-04-26,2027-04-26,Povos Originários,3.129243850708008e-07,0.0,3.129243850708008e-07,2024-10-26,5,Atenção,Viasat
MGSI001326,MGSF000074,quilombo,Migração,Ativo,SB2PLUSMODEM,0042-GESAC2 400 WIFI (SB2+),00A0BCA7C02C,Chapada Gaúcha,-15.300000190734863,-45.61000061035156,MG,FTB-022031,2022-08-09,2027-08-09,Povos Originários,58.21134592127055,6.330832849256694,64.54217877052724,2024-10-30,1,Online,SES
GOSI000194,GOSF000097,quilombo,Migração,Ativo,SB2PLUSMODEM,0039-GESAC2 200 (SB2+),00A0BCAD84C4,,-14.309240341186523,-47.290504455566406,GO,FTB-018612,2022-05-14,2027-05-14,Povos Originários,138.31573490984738,9.926261784508824,148.2419966943562,2024-10-31,0,Online,Viasat
GOSI000201,GOSF000018,quilombo,Migração,Ativo,SB2PLUSMODEM,0039-GESAC2 200 (SB2+),00A0BC6DD8C0,,-14.133509635925291,-47.510398864746094,GO,FTB-018621,2022-05-14,2027-05-14,Povos Originários,70.69293953571469,4.767461291514337,75.46040082722902,2024-10-29,2,Online,Viasat
MASI002460,MASI002460,quilombo,Other Providers,Terminated,SB2MODEM,0001-GESAC 10Mbps,00A0BC3DE09A,Cantanhede,-3.607812881469727,-44.096473693847656,MA,FTB-003366,2022-04-28,2027-04-28,Povos Originários,0.0,0.0,0.0,2024-10-27,4,Atenção,Viasat
ALSI001154,ALSF000282,quilombo,Migração,Ativo,SB2PLUSMODEM,0039-GESAC2 200,00A0BC74FDA0,Viçosa,-9.371500015258787,-36.241310119628906,AL,FTB-018552,2022-05-13,2027-05-13,Povos Originários,,,,2024-10-29,2,Online,Viasat
ALSI001155,ALSF000287,quilombo,Migração,Ativo,SB2PLUSMODEM,0039-GESAC2 200,00A0BC791B04,Taquarana,-9.645500183105469,-36.497318267822266,AL,FTB-019059,2022-05-20,2027-05-20,Povos Originários,42.198232209309936,4.264032195322216,46.46226440463215,2024-10-30,1,Online,Viasat
PASI002606,PASF001219,quilombo,Migração,Ativo,SB2PLUSMODEM,0039-GESAC2 200,00A0BCA1BAD4,Salvaterra,-0.7534400224685669,-48.51739883422852,PA,FTB-017870,2022-05-03,2027-05-03,Povos Originários,177.92031263560057,16.015544730238616,193.9358573658392,2024-10-31,0,Online,Viasat
PASI002690,PASF001221,quilombo,Migração,Ativo,SB2PLUSMODEM,0039-GESAC2 200,00A0BC9EDFB0,Salvaterra,-0.7534400224685669,-48.51739883422852,PA,FTB-017873,2022-05-03,2027-05-03,Povos Originários,21.79490354191512,1.8127786982804537,23.60768224019557,2024-10-27,4,Atenção,Viasat
PASI003119,PASF001224,quilombo,Migração,Ativo,SB2PLUSMODEM,0039-GESAC2 200,00A0BCA1EE78,Salvaterra,-0.7534400224685669,-48.51739883422852,PA,FTB-018126,2022-05-06,2027-05-06,Povos Originários,33.48496916517615,2.674022414721549,36.1589915798977,2024-10-29,2,Online,Hughesnet
MASI002599,MASF001221,quilombo,Migração,Ativo,SB2PLUSMODEM,0040-GESAC2 300 (SB2+),00A0BCA7E224,Presidente Vargas,-3.4074599742889404,-44.02436828613281,MA,FTB-000984,2022-05-13,2027-05-13,Povos Originários,350.5290022743866,14.184910972602664,364.7139132469893,2024-10-29,2,Online,Viasat
MASI002117,MASF001865,quilombo,Migração,Ativo,SB2PLUSMODEM,0039-GESAC2 200,00A0BCB1B4C0,Satubinha,-3.947175741195679,-45.25067138671875,MA,FTB-018631,2022-05-15,2027-05-15,Povos Originários,2.3469328880310059e-07,0.0,2.3469328880310059e-07,2024-10-21,10,Offline,Hughesnet
APSI000248,APSF000074,quilombo,Migração,Ativo,SB2MODEM,0039-GESAC2 200,00A0BC35AF56,Macapá,0.1342999935150146,-51.05288314819336,AP,FTB-019001,2022-05-19,2027-05-19,Povos Originários,46.07563812099397,6.084121264517307,52.15975938551128,2024-10-30,1,Online,Hughesnet
BASI003089,BASF000116,quilombo,Migração,Ativo,SB2PLUSMODEM,0039-GESAC2 200 (SB2+),00A0BC94A8D8,Campo Formoso,-10.595608711242676,-40.93149566650391,BA,FTB-019271,2022-05-24,2027-05-24,Povos Originários,40.44759003166109,4.706217281520367,45.15380731318146,2024-10-31,0,Online,Hughesnet
MSSI000352,MSSF000013,quilombo,Migração,Ativo,SB2PLUSMODEM,0042-GESAC2 400 WIFI (SB2+),00A0BC8F62B0,Figueirão,-18.987096786499023,-53.73323440551758,MS,FTB-019407,2022-05-26,2027-05-26,Povos Originários,44.21803559269756,5.19822100456804,49.4162565972656,2024-10-30,1,Online,Hughesnet
BASI003947,BASF000052,quilombo,Migração,Ativo,SB2PLUSMODEM,0042-GESAC2 400 WIFI (SB2+),00A0BC9EEEB4,Anagé,-14.612500190734863,-41.13639831542969,BA,FTB-021465,2022-07-26,2027-07-26,Povos Originários,8.493661880493164e-07,0.0,8.493661880493164e-07,2024-10-21,10,Offline,SES
GOSI000218,GOSF000058,quilombo,Migração,Ativo,SB2PLUSMODEM,0039-GESAC2 200 (SB2+),00A0BC7326D4,,-14.096501350402832,-46.63240051269531,GO,FTB-021369,2022-07-22,2027-07-22,Povos Originários,265.294550832361,27.83523034118116,293.12978117354214,2024-10-28,3,Online,Viasat
ESSI000921,ESSF000084,quilombo,Migração,Bloqueados,SB2PLUSMODEM,0042-GESAC2 400 WIFI (SB2+),00A0BC9826BC,Montanha,-18.127500534057617,-40.363399505615234,ES,FTB-022973,2022-09-02,2027-09-02,Povos Originários,0.0,0.0,0.0,2024-10-31,0,Online,Viasat
PASI002067,PASF000844,quilombo,Migração,Ativo,SB2PLUSMODEM,0039-GESAC2 200,00A0BC8F9278,Cachoeira Do Piriá,-1.8084815740585327,-46.27873229980469,PA,FTB-020781,2022-06-29,2027-06-29,Povos Originários,201.3616786925122,15.16162005532533,216.5232987478376,2024-10-30,1,Online,SES
RNSI000829,RNSI000829,quilombo,Will Not Migrate,Bloqueados,SB2MODEM,0001-GESAC 10Mbps,00A0BC3600FF,Açu,-5.577469825744629,-36.90932083129883,RN,FTB-020820,2022-06-30,2027-06-30,Povos Originários,,,,2024-10-31,0,Online,Viasat
GOSI000221,GOSI000221,quilombo,Will Not Migrate,Bloqueados,SB2PLUSMODEM,0034-GESAC Brasil WiFi,00A0BC9493D8,São João d'Aliança,-14.706509590148926,-47.52540969848633,GO,FTB-020938,2022-07-07,2027-07-07,Povos Originários,0.0143946111202239,0.0249451864510774,0.0393397975713014,2024-10-29,2,Online,Hughesnet
ALSI001183,ALSI001183,quilombo,Will Not Migrate,Bloqueados,SB2MODEM,0001-GESAC 10Mbps,00A0BC45A879,Major Isidoro,-9.532500267028809,-36.98532104492188,AL,FTB-022757,2022-08-29,2027-08-29,Povos Originários,0.0,0.0,0.0,2024-10-30,1,Online,Viasat
PESI001284,PESI001284,quilombo,Will Not Migrate,Bloqueados,SB2PLUSMODEM,0017-Telebras SB2+ - 10Mbps,00A0BCA4FC5C,Sertânia,-8.074490547180176,-37.26432037353516,PE,FTB-021657,2022-07-29,2027-07-29,Povos Originários,,,,2024-10-29,2,Online,Hughesnet
PASI002476,PASF001418,quilombo,Migração,Ativo,SB2PLUSMODEM,0039-GESAC2 200,00A0BCB84730,,-1.362815022468567,-47.847923278808594,PA,FTB-022182,2022-08-13,2027-08-13,Povos Originários,98.062484273687,9.376014209352434,107.43849848303944,2024-10-31,0,Online,Hughesnet
ALSI001198,ALSF000343,quilombo,Migração,Ativo,SB2PLUSMODEM,0042-GESAC2 400 WIFI (SB2+),00A0BCA89304,Teotônio Vilela,-9.905500411987305,-36.35332107543945,AL,FTB-024621,2022-09-30,2027-09-30,Povos Originários,37.75235251523554,5.767437561415136,43.51979007665068,2024-10-29,2,Online,SES
ALSI001189,ALSF000345,quilombo,Migração,Ativo,SB2PLUSMODEM,0042-GESAC2 400 WIFI (SB2+),00A0BCA7AE48,Inhapi,-9.219499588012695,-37.75432968139648,AL,FTB-023773,2022-09-21,2027-09-21,Povos Originários,,,,2024-10-30,1,Online,Viasat
BASI004007,BASI004007,quilombo,Will Not Migrate,Ativo,SB2PLUSMODEM,0034-GESAC Brasil WiFi,NOT_AVAILABLE,FILADÉLFIA,-10.741510391235352,-40.13335037231445,BA,FTB-023602,2022-09-20,2027-09-20,Povos Originários,,,,2024-10-19,12,Offline,SES
BASI004011,BASI004011,quilombo,Will Not Migrate,Ativo,SB2PLUSMODEM,0034-GESAC Brasil WiFi,NOT_AVAILABLE,TANHAÇU,-14.021519660949709,-41.24835968017578,BA,FTB-024081,2022-09-24,2027-09-24,Povos Originários,,,,2024-10-24,7,Offline,SES
MASI003479,MASI003479,quilombo,Will Not Migrate,Terminated,SB2MODEM,0001-GESAC 10Mbps,NOT_AVAILABLE,Itapecuru Mirim,-3.3934600353240967,-44.359371185302734,MA,FTB-000700,2022-09-16,2027-09-16,Povos Originários,,,,2024-10-29,2,Online,SES
MASI003568,MASF001690,quilombo,Migração,Ativo,SB2PLUSMODEM,0039-GESAC2 200,00A0BC7217A8,Vargem Grande,-3.6484689712524414,-44.028568267822266,Maranhão,FTB-008326,2022-09-23,2027-09-23,Povos Originários,1.1506580486893654,0.0894101429730653,1.2400681916624308,2024-10-31,0,Online,SES
MASI003714,MASI003714,quilombo,Other Providers,Terminated,SB2MODEM,0001-GESAC 10Mbps,NOT_AVAILABLE,Vitória do Mearim,-3.4624600410461426,-44.871368408203125,MA,FTB-003846,2022-09-21,2027-09-21,Povos Originários,,,,2024-10-27,4,Atenção,SES
PASI003046,PASI003046,quilombo,Will Not Migrate,Bloqueados,SB2MODEM,0001-GESAC 10Mbps,00A0BC431395,Mocajuba,-2.5844500064849854,-49.50741195678711,PA,FTB-022399,2022-08-20,2027-08-20,Povos Originários,0.0,0.0,0.0,2024-10-27,4,Atenção,Viasat
PASI002276,PASI002276,quilombo,Will Not Migrate,Bloqueados,SB2MODEM,0001-GESAC 10Mbps,00A0BC37906D,Mocajuba,-2.5844500064849854,-49.50741195678711,PA,FTB-022400,2022-08-20,2027-08-20,Povos Originários,,,,2024-10-31,0,Online,SES
MASI003390,MASF000236,quilombo,Migração,Ativo,SB2PLUSMODEM,0039-GESAC2 200,00A0BC63FBD4,,-5.028413772583008,-44.43087768554688,MA,FTB-025742,2022-11-04,2027-11-04,Povos Originários,33.774557006545365,2.590015510097146,36.36457251664251,2024-10-29,2,Online,Hughesnet
PASI003645,PASI003645,quilombo,Will Not Migrate,Bloqueados,SB2MODEM,0001-GESAC 10Mbps,00A0BC421A27,Mocajuba,-2.5844500064849854,-49.50740814208984,PA,FTB-024683,2022-10-04,2027-10-04,Povos Originários,,,,2024-10-31,0,Online,SES
PASI004053,PASI004053,quilombo,Will Not Migrate,Bloqueados,SB2MODEM,0001-GESAC 10Mbps,00A0BC455DC1,Tomé-Açu,-2.419450044631958,-48.15240097045898,PA,FTB-026144,2022-11-26,2027-11-26,Povos Originários,,,,2024-10-31,0,Online,Hughesnet
MASI003446,MASI003446,quilombo,Will Not Migrate,Bloqueados,SB2MODEM,0001-GESAC 10Mbps,00A0BC315A8C,Turiaçu,-1.663450002670288,-45.37237930297852,MA,FTB-007829,2022-11-15,2027-11-15,Povos Originários,,,,2024-10-30,1,Online,Viasat
APSI000358,APSI000358,quilombo,Will Not Migrate,Ativo,SB2PLUSMODEM,0034-GESAC Brasil WiFi,00A0BCA4EEE4,Santana,-0.0584300011396408,-51.18241882324219,AP,FTB-016980,2023-03-06,2028-03-06,Povos Originários,,,,2024-10-30,1,Online,Hughesnet
PASI004145,PASI004145,quilombo,Will Not Migrate,Ativo,SB2PLUSMODEM,0034-GESAC Brasil WiFi,00A0BC8F4024,Gurupá,-1.4054399728775024,-51.640419006347656,PA,FTB-005676,2023-03-16,2028-03-16,Povos Originários,563.4512388212606,47.28884182777256,610.7400806490332,2024-10-25,6,Offline,SES
SESI000452,SESI000452,quilombo,Will Not Migrate,Bloqueados,SB2PLUSMODEM,0034-GESAC Brasil WiFi,00A0BC8E3728,Cumbe,-10.358696937561035,-37.20531845092773,SE,FTB-014462,2023-04-25,2028-04-25,Povos Originários,0.0,0.0,0.0,2024-10-30,1,Online,Viasat
BASI004081,BASF000363,quilombo,Migração,Ativo,SB2PLUSMODEM,0042-GESAC2 400 WIFI (SB2+),00A0BCA4A704,João Dourado,-11.350509643554688,-41.66436004638672,BA,FTB-015807,2023-06-01,2028-06-01,Povos Originários,252.5638949042186,17.489637742750347,270.05353264696896,2024-10-13,18,Offline,SES
BASI004082,BASF000394,quilombo,Migração,Ativo,SB2PLUSMODEM,0042-GESAC2 400 WIFI (SB2+),00A0BC8F5998,Morro do Chapéu,-11.549443244934082,-41.1590576171875,BA,FTB-015617,2023-06-02,2028-06-02,Povos Originários,3.9148577637970448,0.5453633461147547,4.460221109911799,2024-10-29,2,Online,Viasat
BASI004083,BASF000395,quilombo,Migração,Ativo,SB2PLUSMODEM,0042-GESAC2 400 WIFI (SB2+),00A0BCB70378,Morro do Chapéu,-11.549443244934082,-41.1590576171875,BA,FTB-015842,2023-06-02,2028-06-02,Povos Originários,37.59653246216476,4.403602043166757,42.00013450533152,2024-10-30,1,Online,Viasat
MASI003932,MASI003932,quilombo,Will Not Migrate,Ativo,SB2PLUSMODEM,0034-GESAC Brasil WiFi,00A0BC945C98,Codó,-4.455460071563721,-43.88637161254883,MA,FTB-027172,2023-06-16,2028-06-16,Povos Originários,82.63164896797389,6.491758611984551,89.12340757995844,2024-10-31,0,Online,Viasat
CESI001468,CESI001468,quilombo,Will Not Migrate,Grace,SB2PLUSMODEM,0034-GESAC Brasil WiFi,00A0BCB81FD4,Caucaia,-3.773072004318237,-38.66484069824219,CE,FTB-004957,2023-07-11,2028-07-11,Povos Originários,0.0,0.0,0.0,2024-10-31,0,Online,Viasat
BASI003690,BASF000371,quilombo,Migração,Ativo,SB2MODEM,0039-GESAC2 200 (SB2+),00A0BC33B67B,Maragogipe,-12.778519630432127,-38.91933822631836,BA,FTB-012206,2023-10-06,2028-10-06,Povos Originários,378.881156203337,57.83453546371311,436.7156916670501,2024-10-31,0,Online,Viasat
RRSI000318,RRSI000318,pelotao,Will Not Migrate,Terminated,SB2MODEM,0009-Telebras Plan 3 - 20Mbps,NOT_AVAILABLE,PACARAIMA,4.477499961853027,-61.14939880371094,RR,FTB-000015,2018-10-02,2023-10-02,Outros,,,,2024-10-26,5,Atenção,Hughesnet
RRSI000004,RRSI000004,pelotao,Will Not Migrate,Terminated,SB2MODEM,0001-GESAC 10Mbps,NOT_AVAILABLE,PACARAIMA,4.477499961853027,-61.14970016479492,RR,FTB-000001,2018-07-22,2023-07-22,Outros,,,,2024-10-29,2,Online,Hughesnet
AMSI000026,AMSI000026,pelotao,Will Not Migrate,Terminated,SB2MODEM,0001-GESAC 10Mbps,NOT_AVAILABLE,SÃO GABRIEL DA CACHOEIRA,-1.3903000354766846,-68.1603012084961,AM,FTB-009516,2019-09-03,2024-09-03,Outros,,,,2024-10-30,1,Online,Hughesnet
AMSI000031,AMSF000033,pelotao,Migração,Ativo,SB2PLUSMODEM,0039-GESAC2 200 (SB2+),00A0BCBE381C,,-1.699167013168335,-69.38583374023438,AM,FTB-009424,2019-08-28,2024-08-28,Outros,12.848541864193976,1.1958976490423083,14.044439513236284,2024-10-28,3,Online,Viasat
AMSI000025,AMSI000025,pelotao,Will Not Migrate,Terminated,SB2MODEM,0001-GESAC 10Mbps,NOT_AVAILABLE,SÃO GABRIEL DA CACHOEIRA,0.4291999936103821,-69.79170227050781,AM,FTB-009382,2019-08-26,2024-08-26,Outros,,,,2024-10-30,1,Online,Hughesnet
AMSI000030,AMSI000030,pelotao,Will Not Migrate,Terminated,SB2MODEM,0009-Telebras Plan 3 - 20Mbps,NOT_AVAILABLE,SÃO GABRIEL DA CACHOEIRA,-0.1199999973177909,-67.08999633789062,AM,FTB-008748,2019-07-30,2024-07-30,Outros,,,,2024-10-31,0,Online,Hughesnet
AMSI000387,AMSF000042,pelotao,Migração,Ativo,SB2PLUSMODEM,0039-GESAC2 200 (SB2+),00A0BCDB712C,,-0.1190899983048439,-67.08399963378906,AM,FTB-009596,2019-09-10,2024-09-10,Outros,54.634633543901145,5.075098958797753,59.7097325026989,2024-10-31,0,Online,Hughesnet
AMSI000019,AMSI000019,pelotao,Will Not Migrate,Terminated,SB2MODEM,0001-GESAC 10Mbps,NOT_AVAILABLE,TABATINGA,-4.231500148773193,-69.93689727783203,AM,FTB-005117,2019-05-28,2024-05-28,Outros,,,,2024-10-29,2,Online,Viasat
RRSI000009,RRSI000009,pelotao,Will Not Migrate,Terminated,SB2MODEM,0001-GESAC 10Mbps,NOT_AVAILABLE,Boa Vista,2.819999933242798,-60.66669845581055,RR,FTB-006858,2019-06-21,2024-06-21,Outros,,,,2024-10-31,0,Online,Viasat
ACSI000066,ACSI000066,pelotao,Will Not Migrate,Terminated,SB2MODEM,0001-GESAC 10Mbps,NOT_AVAILABLE,Assis Brasil,-10.929400444030762,-69.56279754638672,AC,FTB-006843,2019-06-20,2024-06-20,Outros,,,,2024-10-29,2,Online,Viasat
ROSI000005,ROSF000051,pelotao,Migração,Ativo,SB2PLUSMODEM,0039-GESAC2 200,00A0BCA4EBD0,,-12.42638874053955,-64.42500305175781,RO,FTB-008638,2019-07-27,2024-07-27,Outros,182.93902413919568,28.15404157154262,211.0930657107383,2024-10-27,4,Atenção,Viasat
AMSI000018,AMSI000018,pelotao,Other Providers,Bloqueados,SB2MODEM,0001-GESAC 10Mbps,00A0BC45E7ED,TABATINGA,-5.135889053344727,-72.8113021850586,AM,FTB-009327,2019-08-22,2024-08-22,Outros,3.129243850708008e-07,0.0,3.129243850708008e-07,2024-10-31,0,Online,SES
ACSI000300,ACSI000300,pelotao,Will Not Migrate,Terminated,SB2MODEM,0001-GESAC 10Mbps,NOT_AVAILABLE,Porto Walter,-8.267600059509277,-72.7426986694336,AC,FTB-012938,2024-10-31,2029-10-31,Outros,,,,2024-10-26,5,Atenção,SES
ACSI000301,ACSI000301,pelotao,Will Not Migrate,Terminated,SB2MODEM,0001-GESAC 10Mbps,NOT_AVAILABLE,Jordão,-9.190299987792969,-71.94999694824219,AC,FTB-012992,2024-10-25,2029-10-25,Outros,,,,2024-10-28,3,Online,Hughesnet
ACSI000299,ACSI000299,pelotao,Will Not Migrate,Reduced,SB2MODEM,0001-GESAC 10Mbps,NOT_AVAILABLE,Rodrigues Alves,-7.73859977722168,-72.65350341796875,AC,FTB-012810,2020-09-09,2025-09-09,Outros,,,,2024-10-30,1,Online,Viasat
ACSI000323,ACSI000323,pelotao,Will Not Migrate,Reduced,SB2MODEM,0001-GESAC 10Mbps,NOT_AVAILABLE,Porto Acre,-9.726699829101562,-67.69869995117188,AC,FTB-012832,2020-09-09,2025-09-09,Outros,,,,2024-10-29,2,Online,Viasat
ACSI000322,ACSI000322,pelotao,Will Not Migrate,Reduced,SB2MODEM,0001-GESAC 10Mbps,NOT_AVAILABLE,Bujari,-9.82979965209961,-67.95099639892578,AC,FTB-012822,2020-09-09,2025-09-09,Outros,,,,2024-10-29,2,Online,Viasat
ACSI000296,ACSI000296,pelotao,Will Not Migrate,Terminated,SB2MODEM,0001-GESAC 10Mbps,NOT_AVAILABLE,Cruzeiro do Sul,-7.740499973297119,-72.48590087890625,AC,FTB-012846,2024-10-11,2029-10-11,Outros,,,,2024-10-31,0,Online,Viasat
RRSI000319,RRSI000319,policia,Will Not Migrate,Terminated,SB2MODEM,0009-Telebras Plan 3 - 20Mbps,NOT_AVAILABLE,PACARAIMA,4.480000019073486,-61.14810180664063,RR,FTB-000016,2018-10-02,2023-10-02,Outros,,,,2024-10-17,14,Offline,SES
AMSI000653,AMSI000653,policia,Will Not Migrate,Bloqueados,SB2PLUSMODEM,0019-Telebras SB2+ - 20Mbps,00A0BCA7FD58,Apuí,-7.513899803161621,-63.02949905395508,AM,FTB-010634,2019-11-20,2024-11-20,Outros,,,,2024-10-30,1,Online,Viasat
AMSI000650,AMSI000650,policia,Will Not Migrate,Bloqueados,SB2PLUSMODEM,0019-Telebras SB2+ - 20Mbps,00A0BC8F4754,São Gabriel da Cachoeira,-0.1360999941825866,-67.0833969116211,AM,FTB-010942,2019-12-02,2024-12-02,Outros,22.63487178552896,3.553635934367776,26.188507719896734,2024-10-28,3,Online,Viasat
AMSI000651,AMSI000651,policia,Will Not Migrate,Bloqueados,SB2PLUSMODEM,0019-Telebras SB2+ - 20Mbps,00A0BC94ACEC,Tefé,-3.3685998916625977,-64.71990203857422,AM,FTB-010823,2019-11-26,2024-11-26,Outros,27.73711346462369,1.9489423232153056,29.686055787838995,2024-10-29,2,Online,Viasat
AMSI000652,AMSI000652,policia,Will Not Migrate,Bloqueados,SB2PLUSMODEM,0019-Telebras SB2+ - 20Mbps,00A0BC9E84E0,Santo Antonio do Içá,-3.099800109863281,-67.93710327148438,AM,FTB-010935,2019-12-02,2024-12-02,Outros,136.68392634019256,12.60666977521032,149.29059611540288,2024-10-31,0,Online,SES
ROSI000337,ROSI000337,policia,Will Not Migrate,Reduced,SB2MODEM,0001-GESAC 10Mbps,NOT_AVAILABLE,Cacoal,-11.434539794921877,-61.45687103271485,RO,FTB-011871,2020-05-28,2025-05-28,Outros,,,,2024-10-28,3,Online,SES
ROSI000345,ROSI000345,policia,Will Not Migrate,Reduced,SB2MODEM,0001-GESAC 10Mbps,NOT_AVAILABLE,Cacoal,-11.434539794921877,-61.45687103271485,RO,FTB-011851,2020-05-26,2025-05-26,Outros,,,,2024-10-31,0,Online,Viasat
PISI000493,PISI000493,policia,Will Not Migrate,Reduced,SB2MODEM,0001-GESAC 10Mbps,NOT_AVAILABLE,Batalha,-4.024459838867188,-42.07835006713867,PI,FTB-012830,2020-09-09,2025-09-09,Outros,,,,2024-10-26,5,Atenção,Viasat
PISI000494,PISI000494,policia,Will Not Migrate,Reduced,SB2MODEM,0001-GESAC 10Mbps,NOT_AVAILABLE,Barro Duro,-5.818470001220703,-42.51335906982422,PI,FTB-012720,2020-08-25,2025-08-25,Outros,,,,2024-10-28,3,Online,Hughesnet
PISI000495,PISI000495,policia,Will Not Migrate,Reduced,SB2MODEM,0001-GESAC 10Mbps,NOT_AVAILABLE,Canto do Buriti,-8.110489845275879,-42.9443588256836,PI,FTB-012731,2020-08-26,2025-08-26,Outros,,,,2024-10-08,23,Offline,SES
PISI000503,PISI000503,policia,Will Not Migrate,Reduced,SB2MODEM,0001-GESAC 10Mbps,NOT_AVAILABLE,Curimatá,-10.036499977111816,-44.30638122558594,PI,FTB-012754,2020-08-31,2025-08-31,Outros,,,,2024-10-31,0,Online,SES
PISI000496,PISI000496,policia,Will Not Migrate,Reduced,SB2MODEM,0001-GESAC 10Mbps,NOT_AVAILABLE,Inhuma,-6.668479919433594,-41.70835113525391,PI,FTB-012701,2020-08-19,2025-08-19,Outros,,,,2024-10-26,5,Atenção,Viasat
PISI000504,PISI000504,policia,Will Not Migrate,Reduced,SB2MODEM,0001-GESAC 10Mbps,NOT_AVAILABLE,Guadalupe,-6.787479877471924,-43.56937026977539,PI,FTB-012763,2020-09-01,2025-09-01,Outros,,,,2024-10-28,3,Online,Hughesnet
PISI000497,PISI000497,policia,Will Not Migrate,Reduced,SB2MODEM,0001-GESAC 10Mbps,NOT_AVAILABLE,Itaueira,-7.603479862213135,-43.02635955810547,PI,FTB-012740,2020-08-27,2025-08-27,Outros,,,,2024-10-23,8,Offline,Viasat
PISI000505,PISI000505,policia,Will Not Migrate,Terminated,SB2MODEM,0001-GESAC 10Mbps,NOT_AVAILABLE,Luzilândia,-3.458460092544556,-42.370361328125,PI,FTB-012821,2024-08-16,2029-08-16,Outros,,,,2024-10-31,0,Online,Viasat
PISI000499,PISI000499,policia,Will Not Migrate,Reduced,SB2MODEM,0001-GESAC 10Mbps,NOT_AVAILABLE,Miguel Alves,-4.166460037231445,-42.89535903930664,PI,FTB-012787,2020-09-03,2025-09-03,Outros,,,,2024-10-29,2,Online,Viasat
PISI000500,PISI000500,policia,Will Not Migrate,Terminated,SB2MODEM,0001-GESAC 10Mbps,NOT_AVAILABLE,Pio IX,-6.838479995727539,-40.579349517822266,PI,FTB-012708,2024-08-21,2029-08-21,Outros,,,,2024-10-29,2,Online,Viasat
PISI000501,PISI000501,policia,Will Not Migrate,Reduced,SB2MODEM,0001-GESAC 10Mbps,NOT_AVAILABLE,Simões,-7.599490165710449,-40.81835174560547,PI,FTB-012713,2020-08-23,2025-08-23,Outros,,,,2024-10-29,2,Online,Viasat
PISI000502,PISI000502,policia,Will Not Migrate,Reduced,SB2MODEM,0001-GESAC 10Mbps,NOT_AVAILABLE,Simplício Mendes,-7.854489803314209,-41.91035842895508,PI,FTB-012717,2020-08-25,2025-08-25,Outros,,,,2024-10-23,8,Offline,Hughesnet
APSI000187,APSI000187,policia,Will Not Migrate,Terminated,SB2MODEM,0001-GESAC 10Mbps,NOT_AVAILABLE,Calçoene,2.307800054550171,-51.63159942626953,AP,FTB-012982,2024-10-22,2029-10-22,Outros,,,,2024-10-31,0,Online,Viasat
APSI000186,APSI000186,policia,Will Not Migrate,Terminated,SB2MODEM,0001-GESAC 10Mbps,NOT_AVAILABLE,Calçoene,2.492799997329712,-50.964500427246094,AP,FTB-012981,2024-01-11,2029-01-11,Outros,,,,2024-10-28,3,Online,Viasat
ACSI000316,ACSI000316,policia,Will Not Migrate,Reduced,SB2MODEM,0001-GESAC 10Mbps,NOT_AVAILABLE,Rio Branco,-10.003899574279783,-67.84040069580078,AC,FTB-012800,2020-09-04,2025-09-04,Outros,,,,2024-10-27,4,Atenção,SES
PISI000509,PISI000509,policia,Will Not Migrate,Terminated,SB2MODEM,0001-GESAC 10Mbps,NOT_AVAILABLE,Corrente,-10.443499565124512,-45.16238021850586,PI,FTB-012888,2024-10-03,2029-10-03,Outros,,,,2024-10-28,3,Online,Viasat
RRSI000447,RRSI000447,policia,Will Not Migrate,Terminated,SB2MODEM,0001-GESAC 10Mbps,NOT_AVAILABLE,Boa Vista,2.819580078125,-60.673465728759766,RR,FTB-012885,2024-10-02,2029-10-02,Outros,,,,2024-10-30,1,Online,Hughesnet
RRSI000448,RRSI000448,policia,Will Not Migrate,Terminated,SB2MODEM,0001-GESAC 10Mbps,NOT_AVAILABLE,Boa Vista,2.819580078125,-60.673465728759766,RR,FTB-012860,2024-10-01,2029-10-01,Outros,,,,2024-10-30,1,Online,Viasat
RRSI000444,RRSI000444,policia,Will Not Migrate,Reduced,SB2MODEM,0001-GESAC 10Mbps,NOT_AVAILABLE,Boa Vista,2.819580078125,-60.673465728759766,RR,FTB-012831,2020-09-09,2025-09-09,Outros,,,,2024-10-28,3,Online,SES
RRSI000443,RRSI000443,policia,Will Not Migrate,Terminated,SB2MODEM,0001-GESAC 10Mbps,NOT_AVAILABLE,Boa Vista,2.819580078125,-60.673465728759766,RR,FTB-012927,2024-10-29,2029-10-29,Outros,,,,2024-10-31,0,Online,Viasat
APSI000197,APSI000197,policia,Will Not Migrate,Terminated,SB2MODEM,0001-GESAC 10Mbps,NOT_AVAILABLE,Pracuúba,1.7438000440597534,-50.7869987487793,AP,FTB-013006,2024-10-30,2029-10-30,Outros,,,,2024-10-26,5,Atenção,Viasat
APSI000172,APSI000172,policia,Will Not Migrate,Terminated,SB2MODEM,0001-GESAC 10Mbps,NOT_AVAILABLE,Laranjal do Jari,-0.8458999991416931,-52.51860046386719,AP,FTB-012881,2024-10-17,2029-10-17,Outros,,,,2024-10-26,5,Atenção,Viasat
APSI000196,APSI000196,policia,Will Not Migrate,Terminated,SB2MODEM,0001-GESAC 10Mbps,00A0BC39AC4A,Ferreira Gomes,0.8636999726295471,-51.18299865722656,AP,FTB-012949,2024-10-04,2029-10-04,Outros,,,,2024-10-25,6,Offline,SES
APSI000195,APSI000195,policia,Will Not Migrate,Terminated,SB2MODEM,0001-GESAC 10Mbps,00A0BC35A90D,Amapá,2.0450000762939453,-50.79059982299805,AP,FTB-012996,2024-10-04,2029-10-04,Outros,,,,2024-10-30,1,Online,Viasat
APSI000194,APSI000194,policia,Will Not Migrate,Terminated,SB2MODEM,0001-GESAC 10Mbps,NOT_AVAILABLE,Pedra Branca do Amapari,0.777400016784668,-51.953399658203125,AP,FTB-012922,2024-10-14,2029-10-14,Outros,,,,2024-10-30,1,Online,Viasat
APSI000171,APSI000171,policia,Will Not Migrate,Terminated,SB2MODEM,0001-GESAC 10Mbps,NOT_AVAILABLE,Porto Grande,0.7005000114440918,-51.402000427246094,AP,FTB-013013,2024-10-03,2029-10-03,Outros,,,,2024-10-26,5,Atenção,Hughesnet
APSI000170,APSI000170,policia,Will Not Migrate,Terminated,SB2MODEM,0001-GESAC 10Mbps,NOT_AVAILABLE,Santana,-0.0383000001311302,-51.17890167236328,AP,FTB-012969,2024-10-24,2029-10-24,Outros,,,,2024-10-30,1,Online,Viasat
RRSI000445,RRSI000445,policia,Will Not Migrate,Terminated,SB2MODEM,0001-GESAC 10Mbps,00A0BC3A27A0,Boa Vista,2.825953960418701,-60.72808074951172,RR,FTB-012897,2024-10-23,2029-10-23,Outros,,,,2024-10-30,1,Online,Hughesnet
PISI000498,PISI000498,policia,Will Not Migrate,Terminated,SB2MODEM,0001-GESAC 10Mbps,NOT_AVAILABLE,Matias Olímpio,-3.7164599895477295,-42.55635833740234,PI,FTB-013237,2024-10-09,2029-10-09,Outros,,,,2024-10-25,6,Offline,Viasat
MTSI000374,MTSI000374,policia,Will Not Migrate,Terminated,SB2MODEM,0001-GESAC 10Mbps,NOT_AVAILABLE,Sao Felix do Araguaia,-11.428055763244627,-52.19222259521485,MT,FTB-013331,2024-10-17,2029-10-17,Outros,,,,2024-10-28,3,Online,Hughesnet
APSI000174,APSI000174,policia,Will Not Migrate,Terminated,SB2MODEM,0001-GESAC 10Mbps,NOT_AVAILABLE,Oiapoque,3.8389101028442383,-51.81877517700195,AP,FTB-013560,2024-10-09,2029-10-09,Outros,,,,2024-10-25,6,Offline,Viasat
AMSI000984,AMSI000984,policia,Will Not Migrate,Terminated,SB2MODEM,0001-GESAC 10Mbps,NOT_AVAILABLE,Tabatinga,-4.2534499168396,-69.93850708007812,AM,FTB-014125,2024-09-16,2029-09-16,Outros,,,,2024-10-30,1,Online,SES
AMSI001048,AMSI001048,policia,Will Not Migrate,Bloqueados,SB2MODEM,0001-GESAC 10Mbps,00A0BC35D38E,Careiro da Várzea,-3.221450090408325,-59.82646942138672,AM,FTB-014665,2021-08-31,2026-08-31,Outros,,,,2024-10-25,6,Offline,Viasat
AMSI001045,AMSI001045,policia,Will Not Migrate,Bloqueados,SB2MODEM,0001-GESAC 10Mbps,00A0BC3BEC0B,Iranduba,-3.165555953979492,-60.08305740356445,AM,FTB-014747,2021-09-17,2026-09-17,Outros,,,,2024-10-31,0,Online,SES
MGSI000894,MGSI000894,policia,Will Not Migrate,Bloqueados,SB2PLUSMODEM,0034-GESAC Brasil WiFi,00A0BCB1E664,Jacinto,-16.141090393066406,-40.29097366333008,MG,FTB-015421,2021-12-17,2026-12-17,Outros,,,,2024-10-31,0,Online,Viasat
PASI003244,PASI003244,policia,Will Not Migrate,Bloqueados,SB2MODEM,0001-GESAC 10Mbps,00A0BC359ABB,Paragominas,-2.995450019836426,-47.35338973999024,PA,FTB-016853,2022-04-09,2027-04-09,Outros,,,,2024-10-27,4,Atenção,Viasat
PASI003237,PASF001148,policia,Migração,Ativo,SB2PLUSMODEM,0039-GESAC2 200,00A0BC94A184,,-2.94510555267334,-46.74399948120117,PA,FTB-018127,2022-05-06,2027-05-06,Outros,43.56653018202633,1.4581125508993864,45.02464273292571,2024-10-29,2,Online,Viasat
BASI003914,BASI003914,policia,Will Not Migrate,Bloqueados,SB2MODEM,0001-GESAC 10Mbps,00A0BC32D366,Salvador,-12.971500396728516,-38.51129913330078,BA,FTB-020958,2022-07-07,2027-07-07,Outros,,,,2024-10-26,5,Atenção,Hughesnet
RRSI000625,RRSI000625,policia,Will Not Migrate,Bloqueados,SB2MODEM,0001-GESAC 10Mbps,00A0BC3DBCF4,Boa Vista,2.819580078125,-60.673465728759766,RR,FTB-023894,2022-09-22,2027-09-22,Outros,,,,2024-10-31,0,Online,Viasat
RRSI000626,RRSI000626,policia,Will Not Migrate,Bloqueados,SB2MODEM,0001-GESAC 10Mbps,00A0BC38F6ED,Boa Vista,2.819580078125,-60.673465728759766,RR,FTB-024939,2022-10-11,2027-10-11,Outros,,,,2024-10-27,4,Atenção,Viasat
RRSI000629,RRSI000629,policia,Will Not Migrate,Terminated,SB2MODEM,0001-GESAC 10Mbps,NOT_AVAILABLE,Boa Vista,2.819580078125,-60.673465728759766,RR,FTB-023995,2024-06-24,2029-06-24,Outros,,,,2024-10-25,6,Offline,SES
RRSI000630,RRSI000630,policia,Will Not Migrate,Terminated,SB2MODEM,0001-GESAC 10Mbps,NOT_AVAILABLE,Boa Vista,2.819580078125,-60.673465728759766,RR,FTB-023710,2024-07-11,2029-07-11,Outros,,,,2024-10-27,4,Atenção,Hughesnet
RRSI000633,RRSI000633,policia,Will Not Migrate,Bloqueados,SB2MODEM,0001-GESAC 10Mbps,00A0BC39B78E,Boa Vista,2.819580078125,-60.673465728759766,RR,FTB-024935,2022-10-11,2027-10-11,Outros,,,,2024-10-29,2,Online,Hughesnet
RRSI000627,RRSI000627,policia,Will Not Migrate,Bloqueados,SB2MODEM,0001-GESAC 10Mbps,00A0BC32875E,Boa Vista,2.819580078125,-60.673465728759766,RR,FTB-024869,2022-10-08,2027-10-08,Outros,0.0,0.0,0.0,2024-10-31,0,Online,Hughesnet
RRSI000634,RRSI000634,policia,Will Not Migrate,Bloqueados,SB2MODEM,0001-GESAC 10Mbps,00A0BC69CC9C,Caracaraí,1.8155699968338013,-61.12847137451172,RR,FTB-025127,2022-10-15,2027-10-15,Outros,,,,2024-10-26,5,Atenção,Viasat
RRSI000647,RRSI000647,policia,Will Not Migrate,Bloqueados,SB2MODEM,0001-GESAC 10Mbps,00A0BC3CD495,Boa Vista,2.819580078125,-60.673465728759766,RR,FTB-023896,2022-09-22,2027-09-22,Outros,,,,2024-10-28,3,Online,Viasat
RRSI000648,RRSI000648,policia,Will Not Migrate,Bloqueados,SB2MODEM,0001-GESAC 10Mbps,00A0BC3DA5E9,Bonfim,3.359580039978028,-59.83346939086914,RR,FTB-023899,2022-09-22,2027-09-22,Outros,0.0,0.0,0.0,2024-10-29,2,Online,Viasat
RRSI000645,RRSI000645,policia,Will Not Migrate,Bloqueados,SB2MODEM,0001-GESAC 10Mbps,00A0BC34F2DE,Boa Vista,2.819580078125,-60.673465728759766,RR,FTB-024882,2022-10-08,2027-10-08,Outros,,,,2024-10-23,8,Offline,SES
RRSI000658,RRSI000658,policia,Will Not Migrate,Bloqueados,SB2MODEM,0001-GESAC 10Mbps,00A0BC2F78EB,Cantá,2.609580039978028,-60.597469329833984,RR,FTB-025016,2022-10-13,2027-10-13,Outros,,,,2024-10-31,0,Online,Hughesnet
RRSI000661,RRSI000661,policia,Will Not Migrate,Bloqueados,SB2MODEM,0001-GESAC 10Mbps,00A0BC3147CC,São Luiz,1.0045700073242188,-60.15946960449219,RR,FTB-013054,2022-11-04,2027-11-04,Outros,,,,2024-10-27,4,Atenção,Hughesnet
RRSI000663,RRSI000663,policia,Will Not Migrate,Terminated,SB2MODEM,0001-GESAC 10Mbps,NOT_AVAILABLE,Rorainópolis,0.9455699920654296,-60.4184684753418,RR,FTB-025008,2024-06-06,2029-06-06,Outros,,,,2024-10-28,3,Online,SES
RRSI000632,RRSI000632,policia,Will Not Migrate,Bloqueados,SB2MODEM,0001-GESAC 10Mbps,00A0BC490D2D,Boa Vista,2.819580078125,-60.673465728759766,RR,FTB-023891,2022-09-22,2027-09-22,Outros,,,,2024-10-29,2,Online,Hughesnet
TOSI000381,TOSI000381,policia,Will Not Migrate,Terminated,SB2MODEM,0038-20/4 Corporativo 500,NOT_AVAILABLE,Juarina,-8.11948013305664,-49.06541061401367,TO,FTB-006868,2024-07-17,2029-07-17,Outros,,,,2024-10-31,0,Online,SES
TOSI000382,TOSI000382,policia,Will Not Migrate,Grace,SB2MODEM,0038-20/4 Corporativo 500,00A0BC31C474,Goianorte,-8.776479721069336,-48.932411193847656,TO,FTB-006985,2023-02-03,2028-02-03,Outros,,,,2024-10-29,2,Online,Hughesnet
TOSI000391,TOSI000391,policia,Will Not Migrate,Bloqueados,SB2MODEM,0038-20/4 Corporativo 500,00A0BC35D304,Aurora do Tocantins,-12.713509559631348,-46.408390045166016,TO,FTB-019637,2023-01-26,2028-01-26,Outros,,,,2024-10-30,1,Online,Viasat
TOSI000388,TOSI000388,policia,Will Not Migrate,Grace,SB2MODEM,0038-20/4 Corporativo 500,00A0BC361034,São Salvador do Tocantins,-12.744500160217283,-48.23640823364258,TO,FTB-009136,2023-01-24,2028-01-24,Outros,,,,2024-10-29,2,Online,Hughesnet
TOSI000393,TOSI000393,policia,Will Not Migrate,Terminated,SB2MODEM,0038-20/4 Corporativo 500,00A0BC4697CD,Santa Rita do Tocantins,-10.861499786376951,-48.91440963745117,TO,FTB-017123,2024-09-26,2029-09-26,Outros,,,,2024-10-29,2,Online,SES
TOSI000375,TOSI000375,policia,Will Not Migrate,Grace,SB2MODEM,0038-20/4 Corporativo 500,00A0BC33413B,Rio Sono,-9.344490051269531,-47.90240097045898,TO,FTB-004941,2023-02-03,2028-02-03,Outros,0.0,0.0,0.0,2024-10-31,0,Online,Viasat
TOSI000376,TOSI000376,policia,Will Not Migrate,Grace,SB2MODEM,0038-20/4 Corporativo 500,00A0BC341C22,São Félix do Tocantins,-10.168490409851074,-46.65938949584961,TO,FTB-006216,2023-01-31,2028-01-31,Outros,,,,2024-10-30,1,Online,Viasat
TOSI000378,TOSI000378,policia,Will Not Migrate,Bloqueados,SB2MODEM,0038-20/4 Corporativo 500,00A0BC340859,Bernardo Sayão,-7.8744797706604,-48.88840103149414,TO,FTB-013410,2023-02-04,2028-02-04,Outros,,,,2024-10-31,0,Online,Viasat
TOSI000397,TOSI000397,policia,Will Not Migrate,Terminated,SB2MODEM,0038-20/4 Corporativo 500,NOT_AVAILABLE,São Sebastião do Tocantins,-5.25747013092041,-48.20040130615234,TO,FTB-002040,2023-02-06,2028-02-06,Outros,,,,2024-10-23,8,Offline,Hughesnet
TOSI000372,TOSI000372,policia,Will Not Migrate,Terminated,SB2MODEM,0001-GESAC 10Mbps,00A0BC3867A8,Pugmil,-10.424490928649902,-48.8944091796875,TO,FTB-019720,2024-09-23,2029-09-23,Outros,,,,2024-10-31,0,Online,Hughesnet
RRSI000003,RRSI000003,indigena,Other Providers,Bloqueados,SB2MODEM,0001-GESAC 10Mbps,00A0BC6146FB,PACARAIMA,4.245222091674805,-61.15728759765625,RR,FTB-000003,2018-07-22,2023-07-22,Povos Originários,0.1824596999213099,0.0201680110767483,0.2026277109980583,2024-10-31,0,Online,Viasat
RRSI000007,RRSI000007,indigena,Will Not Migrate,Bloqueados,SB2MODEM,0001-GESAC 10Mbps,00A0BC35D79D,PACARAIMA,4.17110013961792,-60.54219818115234,RR,FTB-000022,2018-10-25,2023-10-25,Povos Originários,0.0,0.0,0.0,2024-10-28,3,Online,Hughesnet
RRSI000006,RRSI000006,indigena,Will Not Migrate,Terminated,SB2MODEM,0001-GESAC 10Mbps,NOT_AVAILABLE,PACARAIMA,3.8417000770568848,-60.60419845581055,RR,FTB-000023,2018-10-25,2023-10-25,Povos Originários,,,,2024-10-28,3,Online,SES
RRSI000079,RRSI000079,indigena,Other Providers,Terminated,SB2MODEM,0001-GESAC 10Mbps,NOT_AVAILABLE,AMAJARI,3.584199905395508,-61.11389923095703,RR,FTB-000458,2019-02-07,2024-02-07,Povos Originários,,,,2024-10-19,12,Offline,Viasat
RRSI000177,RRSI000177,indigena,Will Not Migrate,Terminated,SB2MODEM,0001-GESAC 10Mbps,NOT_AVAILABLE,NORMANDIA,3.811100006103516,-60.09109878540039,RR,FTB-000857,2019-02-25,2024-02-25,Povos Originários,,,,2024-10-29,2,Online,Viasat
RRSI000173,RRSI000173,indigena,Will Not Migrate,Terminated,SB2MODEM,0001-GESAC 10Mbps,NOT_AVAILABLE,PACARAIMA,4.24560022354126,-61.15689849853516,RR,FTB-000854,2019-02-25,2024-02-25,Povos Originários,,,,2024-10-29,2,Online,Viasat
RRSI000169,RRSI000169,indigena,Will Not Migrate,Terminated,SB2MODEM,0001-GESAC 10Mbps,NOT_AVAILABLE,UIRAMUTÃ,4.595099925994873,-60.16239929199219,RR,FTB-000853,2019-02-25,2024-02-25,Povos Originários,,,,2024-10-31,0,Online,SES
RRSI000170,RRSI000170,indigena,Will Not Migrate,Bloqueados,SB2MODEM,0001-GESAC 10Mbps,00A0BC410710,UIRAMUTÃ,4.644721984863281,-60.494998931884766,RR,FTB-000873,2019-02-25,2024-02-25,Povos Originários,0.0,0.0,0.0,2024-10-30,1,Online,Viasat
RRSI000283,RRSI000283,indigena,Other Providers,Terminated,SB2MODEM,0001-GESAC 10Mbps,NOT_AVAILABLE,AMAJARI,3.6449999809265137,-60.97669982910156,RR,FTB-000457,2019-02-07,2024-02-07,Povos Originários,,,,2024-10-31,0,Online,Viasat
ALSI000184,ALSI000184,indigena,Will Not Migrate,Terminated,SB2MODEM,0001-GESAC 10Mbps,NOT_AVAILABLE,PALMEIRA DOS ÍNDIOS,-9.3818998336792,-36.62889862060547,AL,FTB-000356,2019-01-31,2024-01-31,Povos Originários,,,,2024-10-31,0,Online,Viasat
ALSI000146,ALSF000128,indigena,Migração,Ativo,SB2PLUSMODEM,0041-GESAC2 400 (SB2+),00A0BC9E534C,,-9.256765365600586,-37.99909591674805,AL,FTB-001760,2019-03-21,2024-03-21,Povos Originários,20.917049112729728,2.1185600459575653,23.035609158687294,2024-10-30,1,Online,Hughesnet
BASI000064,BASI000064,indigena,Will Not Migrate,Terminated,SB2MODEM,0001-GESAC 10Mbps,NOT_AVAILABLE,GLORIA,-9.340800285339355,-38.46810150146485,BA,FTB-000820,2019-02-22,2024-02-22,Povos Originários,,,,2024-10-30,1,Online,Viasat
MASI000850,MASF000957,indigena,Migração,Ativo,SB2PLUSMODEM,0042-GESAC2 400 WIFI (SB2+),00A0BCBAE7A8,,-5.409999847412109,-45.650001525878906,MA,FTB-001554,2019-03-17,2024-03-17,Povos Originários,99.12401774525642,7.524574223905802,106.64859196916224,2024-10-23,8,Offline,Hughesnet
MASI001030,MASI001030,indigena,Other Providers,Terminated,SB2MODEM,0001-GESAC 10Mbps,NOT_AVAILABLE,JENIPAPO DOS VIEIRAS,-5.36899995803833,-45.63600158691406,MA,FTB-001563,2019-03-18,2024-03-18,Povos Originários,,,,2024-10-29,2,Online,SES
ALSI000186,ALSF000120,indigena,Migração,Ativo,SB2PLUSMODEM,0041-GESAC2 400 (SB2+),00A0BCBB2794,,-9.40770435333252,-36.609519958496094,AL,FTB-001586,2019-03-18,2024-03-18,Povos Originários,9.87352877575904,0.8982505183666945,10.771779294125736,2024-10-31,0,Online,Viasat
MASI000510,MASI000510,indigena,Other Providers,Terminated,SB2MODEM,0001-GESAC 10Mbps,NOT_AVAILABLE,JENIPAPO DOS VIEIRAS,-5.36899995803833,-45.63600158691406,MA,FTB-002444,2019-04-06,2024-04-06,Povos Originários,,,,2024-10-22,9,Offline,Viasat
MASI000618,MASI000618,indigena,Will Not Migrate,Terminated,SB2MODEM,0001-GESAC 10Mbps,NOT_AVAILABLE,BARRA DO CORDA,-5.500999927520752,-45.24599838256836,MA,FTB-001354,2019-03-13,2024-03-13,Povos Originários,,,,2024-10-29,2,Online,SES
MASI000848,MASF000483,indigena,Migração,Ativo,SB2PLUSMODEM,0042-GESAC2 400 WIFI (SB2+),00A0BC9493CC,,-5.739999771118164,-45.41999816894531,MA,FTB-001458,2019-03-15,2024-03-15,Povos Originários,301.545237111859,32.428338908590376,333.9735760204494,2024-10-30,1,Online,Viasat
PESI000223,PESF000351,indigena,Migração,Ativo,SB2PLUSMODEM,0041-GESAC2 400 (SB2+),00A0BCB7F6E8,,-8.903499603271484,-37.82733154296875,PE,FTB-001307,2019-03-12,2024-03-12,Povos Originários,342.90224185958505,35.09126990381628,377.9935117634013,2024-10-30,1,Online,Hughesnet
BASI000582,BASF000789,indigena,Migração,Ativo,SB2PLUSMODEM,0042-GESAC2 400 WIFI (SB2+),00A0BCAD6D90,,-10.42331600189209,-38.77947616577149,BA,FTB-001171,2019-03-09,2024-03-09,Povos Originários,14.174636313691735,1.348756537772715,15.52339285146445,2024-10-28,3,Online,Viasat
BASI001524,BASI001524,indigena,Will Not Migrate,Terminated,SB2MODEM,0001-GESAC 10Mbps,NOT_AVAILABLE,Banzaê,-10.579999923706056,-38.61299896240234,BA,FTB-001251,2019-03-11,2024-03-11,Povos Originários,,,,2024-10-27,4,Atenção,Hughesnet
MASI000258,MASI000258,indigena,Will Not Migrate,Terminated,SB2MODEM,0001-GESAC 10Mbps,NOT_AVAILABLE,BOM JARDIM,-3.6459999084472656,-45.47200012207031,MA,FTB-001802,2019-03-23,2024-03-23,Povos Originários,,,,2024-10-30,1,Online,SES
MASI000909,MASI000909,indigena,Other Providers,Terminated,SB2MODEM,0001-GESAC 10Mbps,NOT_AVAILABLE,Grajaú,-5.824999809265137,-46.152000427246094,MA,FTB-003589,2019-05-01,2024-05-01,Povos Originários,,,,2024-10-31,0,Online,Viasat
MASI000937,MASI000937,indigena,Will Not Migrate,Terminated,SB2MODEM,0001-GESAC 10Mbps,NOT_AVAILABLE,Grajaú,-5.8018999099731445,-45.96889877319336,MA,FTB-005238,2019-05-29,2024-05-29,Povos Originários,,,,2024-10-28,3,Online,Viasat
MASI000907,MASI000907,indigena,Other Providers,Terminated,SB2MODEM,0001-GESAC 10Mbps,NOT_AVAILABLE,Grajaú,-5.820199966430664,-46.178001403808594,MA,FTB-003630,2019-05-02,2024-05-02,Povos Originários,,,,2024-10-27,4,Atenção,Viasat
MASI000908,MASI000908,indigena,Other Providers,Terminated,SB2MODEM,0001-GESAC 10Mbps,NOT_AVAILABLE,Grajaú,-5.824399948120117,-46.15689849853516,MA,FTB-003585,2019-05-01,2024-05-01,Povos Originários,,,,2024-10-31,0,Online,Viasat
MASI000910,MASI000910,indigena,Will Not Migrate,Terminated,SB2MODEM,0001-GESAC 10Mbps,NOT_AVAILABLE,Montes Altos,-5.889699935913086,-46.932498931884766,MA,FTB-005737,2019-06-05,2024-06-05,Povos Originários,,,,2024-10-25,6,Offline,Hughesnet
MASI000571,MASI000571,indigena,Other Providers,Terminated,SB2MODEM,0001-GESAC 10Mbps,NOT_AVAILABLE,Grajaú,-5.823999881744385,-46.15900039672852,MA,FTB-002373,2019-04-05,2024-04-05,Povos Originários,,,,2024-10-29,2,Online,Viasat
